Timestamp,ActionMode,Lyapunov_energy,px,py,pz,roll,pitch,yaw,vx,vy,vz,wx,wy,wz,px_ref,py_ref,pz_ref,roll_ref,pitch_ref,yaw_ref,vx_ref,vy_ref,vz_ref,wx_ref,wy_ref,wz_ref
0.0,1,1.8033095598220825,46.0,2.578919933507451e-12,0.29996079206466675,-2.384185791015625e-07,0.0,0.0,2.4787486299637784e-11,7.350443864684308e-11,-0.019620001316070557,-6.21937212841317e-09,-2.8610229740877458e-09,1.076842018332691e-10,0.0,0.0,0.3,0.0,0.0,0.0,0.4,0.0,0.0,0.0,0.0,0.07472086531736201
0.020000001415610313,1,1.9072277545928955,46.000205993652344,7.8160719567677e-06,0.29786205291748047,-0.00012612342834472656,-0.0008385181427001953,9.894371032714844e-05,0.029039787128567696,0.0027481226716190577,-0.1563287079334259,-0.0396893247961998,-0.25016388297080994,0.022638654336333275,0.0,0.0,0.3,0.0,0.0,0.0,0.4,0.0,0.0,0.0,0.0,0.07700296557337011
0.04000000283122063,1,1.5263664722442627,46.001094818115234,6.144694907561643e-06,0.2946045994758606,-0.004044771194458008,-0.0018885135650634766,0.0011823177337646484,0.05224667489528656,-0.007574297953397036,-0.1443234235048294,-0.09519470483064651,0.1066826656460762,0.03967960551381111,0.0,0.0,0.3,0.0,0.0,0.0,0.4,0.0,0.0,0.0,0.0,0.0794723204092196
0.06000000610947609,1,1.327053189277649,46.002445220947266,-0.00040267850272357464,0.2923790514469147,-0.004270792007446289,0.0012598037719726562,0.0017399787902832031,0.0799342542886734,-0.02629205398261547,-0.08271463960409164,0.07095108926296234,0.15931876003742218,0.0031917619053274393,0.0,0.0,0.3,0.0,0.0,0.0,0.4,0.0,0.0,0.0,0.0,0.08207439846504003
0.07999997586011887,1,1.0980286598205566,46.004417419433594,-0.0010892638238146901,0.29130443930625916,-0.001703500747680664,0.003468751907348633,0.0015523433685302734,0.11126602441072464,-0.03986832872033119,-0.030520258471369743,0.1026126965880394,0.09250783920288086,-0.03660018742084503,0.0,0.0,0.3,0.0,0.0,0.0,0.4,0.0,0.0,0.0,0.0,0.0848096450599493
0.09999994188547134,1,0.9404169917106628,46.00696563720703,-0.0019974224269390106,0.2910682260990143,0.0006928443908691406,0.004103899002075195,0.0006732940673828125,0.13770714402198792,-0.05169402062892914,0.005664545577019453,0.09383182227611542,0.029807452112436295,-0.06796509027481079,0.0,0.0,0.3,0.0,0.0,0.0,0.4,0.0,0.0,0.0,0.0,0.08768493728933488
0.11999990791082382,1,0.8486266732215881,46.009971618652344,-0.003137471852824092,0.2914270758628845,0.0025517940521240234,0.004202842712402344,-0.0007498264312744141,0.1572769582271576,-0.06320194154977798,0.030780455097556114,0.06613285839557648,0.023824892938137054,-0.0861058458685875,0.0,0.0,0.3,0.0,0.0,0.0,0.4,0.0,0.0,0.0,0.0,0.09070913872406446
0.13999992609024048,1,0.7963306903839111,46.01329040527344,-0.00448579341173172,0.2922646999359131,0.003760099411010742,0.004854917526245117,-0.002443552017211914,0.17124994099140167,-0.07226008921861649,0.050417814403772354,0.047887738794088364,0.05430356785655022,-0.09062683582305908,0.0,0.0,0.3,0.0,0.0,0.0,0.4,0.0,0.0,0.0,0.0,0.09389231402987833
0.15999996662139893,1,0.7883288264274597,46.01683807373047,-0.005990548990666866,0.293529748916626,0.004736900329589844,0.006623983383178711,-0.0042383670806884766,0.18145149946212769,-0.07807938009500504,0.0680839940905571,0.05390827730298042,0.10326084494590759,-0.0880676731467247,0.0,0.0,0.3,0.0,0.0,0.0,0.4,0.0,0.0,0.0,0.0,0.09724558085525173
0.18000000715255737,1,0.8241310119628906,46.02055358886719,-0.007587175816297531,0.2951653003692627,0.0065152645111083984,0.009679794311523438,-0.006021738052368164,0.18920296430587769,-0.08060412853956223,0.08202478289604187,0.07709150016307831,0.1500072181224823,-0.08090665936470032,0.0,0.0,0.3,0.0,0.0,0.0,0.4,0.0,0.0,0.0,0.0,0.10078112783713168
0.20000004768371582,1,0.8135478496551514,46.024410247802734,-0.009218940511345863,0.2970215678215027,0.00845479965209961,0.013452291488647461,-0.007712602615356445,0.19570615887641907,-0.08061574399471283,0.08838876336812973,0.055696047842502594,0.1597631424665451,-0.07292141765356064,0.0,0.0,0.3,0.0,0.0,0.0,0.4,0.0,0.0,0.0,0.0,0.10451229329008897
0.22000008821487427,1,0.7717430591583252,46.028404235839844,-0.010857230983674526,0.29885393381118774,0.009545564651489258,0.0171358585357666,-0.009287118911743164,0.2044992744922638,-0.08120135217905045,0.08340910077095032,0.03177911043167114,0.15082579851150513,-0.0671113058924675,0.0,0.0,0.3,0.0,0.0,0.0,0.4,0.0,0.0,0.0,0.0,0.10845367574692044
0.24000012874603271,1,0.7027455568313599,46.03263473510742,-0.012536555528640747,0.30043894052505493,0.009882450103759766,0.020422935485839844,-0.010771036148071289,0.21720220148563385,-0.08304557204246521,0.06817931681871414,0.007419552654027939,0.12809863686561584,-0.06416819989681244,0.0,0.0,0.3,0.0,0.0,0.0,0.4,0.0,0.0,0.0,0.0,0.11262126811343208
0.26000016927719116,1,0.5940772294998169,46.03715133666992,-0.01425201166421175,0.3015693426132202,0.009336233139038086,0.022704124450683594,-0.012115716934204102,0.23306331038475037,-0.0843423455953598,0.047413602471351624,-0.035503678023815155,0.07424663752317429,-0.05952678620815277,0.0,0.0,0.3,0.0,0.0,0.0,0.4,0.0,0.0,0.0,0.0,0.11703261396010099
0.2800002098083496,1,0.4251679480075836,46.04195022583008,-0.015902439132332802,0.30173978209495544,0.007537364959716797,0.022872447967529297,-0.01211857795715332,0.24620327353477478,-0.07550983130931854,-0.08024059981107712,-0.0817793756723404,-0.1229943037033081,0.114889957010746,0.0,0.0,0.3,0.0,0.0,0.0,0.4,0.0,0.0,0.0,0.0,0.1217069872007442
0.30000025033950806,1,1.6012482643127441,46.046592712402344,-0.01707586646080017,0.30088508129119873,0.007838249206542969,0.02778458595275879,-0.010078668594360352,0.21871845424175262,-0.037210650742053986,0.002316976897418499,0.08191312104463577,0.4923076033592224,0.05173483118414879,0.0,0.0,0.3,0.0,0.0,0.0,0.4,0.0,0.0,0.0,0.0,0.12666559783682424
0.3200002908706665,1,0.9985231161117554,46.051177978515625,-0.017636314034461975,0.30116140842437744,0.007526397705078125,0.03615927696228027,-0.008620500564575195,0.23583900928497314,-0.016865121200680733,0.02117493376135826,-0.06460244208574295,0.31420499086380005,0.11289119720458984,0.0,0.0,0.3,0.0,0.0,0.0,0.4,0.0,0.0,0.0,0.0,0.13193182745932078
0.34000033140182495,1,0.6745519638061523,46.05611038208008,-0.017889371141791344,0.30148252844810486,0.008350372314453125,0.040297508239746094,-0.005912065505981445,0.2515330910682678,-0.0014344567898660898,0.02727387845516205,0.06036554276943207,0.1600896567106247,0.16374455392360687,0.0,0.0,0.3,0.0,0.0,0.0,0.4,0.0,0.0,0.0,0.0,0.1375314991277818
0.3600003719329834,1,0.5912705063819885,46.061317443847656,-0.01787959598004818,0.30185747146606445,0.01178431510925293,0.042337656021118164,-0.002435922622680664,0.26247861981391907,0.010125759989023209,0.0326293483376503,0.07995811849832535,0.08425825834274292,0.19228750467300415,0.0,0.0,0.3,0.0,0.0,0.0,0.4,0.0,0.0,0.0,0.0,0.14349318723548815
0.38000041246414185,1,0.5275834798812866,46.06670379638672,-0.01766796223819256,0.3023519515991211,0.014336585998535156,0.04354548454284668,0.0014998912811279297,0.27146080136299133,0.018448518589138985,0.03929184004664421,0.01876133680343628,0.05242064222693443,0.20788557827472687,0.0,0.0,0.3,0.0,0.0,0.0,0.4,0.0,0.0,0.0,0.0,0.14984857410564553
0.4000004529953003,0,0.4916781783103943,46.072261810302734,-0.01730472594499588,0.30299443006515503,0.013885259628295898,0.044104576110839844,0.005803585052490234,0.27955347299575806,0.024235548451542854,0.04638507962226868,-0.09576345980167389,0.016050778329372406,0.21993215382099152,0.0,0.0,0.3,0.0,0.0,0.0,0.4,0.0,0.0,0.0,0.0,0.15663286141262725
0.42000049352645874,0,0.586562991142273,46.07790756225586,-0.016833804547786713,0.30383047461509705,0.010471343994140625,0.0444788932800293,0.010499238967895508,0.2789875268936157,0.026379644870758057,0.0545557402074337,-0.19454844295978546,0.016681170091032982,0.2379186749458313,0.0,0.0,0.3,0.0,0.0,0.0,0.4,0.0,0.0,0.0,0.0,0.16388524615086375
0.4400005340576172,0,0.7297971248626709,46.08343505859375,-0.01633491925895214,0.3048597276210785,0.005234956741333008,0.045476675033569336,0.01568889617919922,0.27168935537338257,0.02560417167842388,0.06146992743015289,-0.24802546203136444,0.03967936336994171,0.2568206191062927,0.0,0.0,0.3,0.0,0.0,0.0,0.4,0.0,0.0,0.0,0.0,0.17164947285779064
0.46000057458877563,0,0.7811627984046936,46.08880615234375,-0.015830758959054947,0.30598077178001404,-0.0003807544708251953,0.04689311981201172,0.021235942840576172,0.2655278742313385,0.024124618619680405,0.06139949709177017,-0.24072368443012238,0.04802476987242699,0.27058789134025574,0.0,0.0,0.3,0.0,0.0,0.0,0.4,0.0,0.0,0.0,0.0,0.17997447622876817
0.4800006151199341,0,0.7236958742141724,46.09409713745117,-0.015335741452872753,0.30698803067207336,-0.005027055740356445,0.04817962646484375,0.027033567428588867,0.26291918754577637,0.02207213081419468,0.051978979259729385,-0.18412666022777557,0.03214108943939209,0.28348493576049805,0.0,0.0,0.3,0.0,0.0,0.0,0.4,0.0,0.0,0.0,0.0,0.18891513125681042
0.5000006556510925,0,0.6332335472106934,46.0993537902832,-0.014862550422549248,0.3076702058315277,-0.007980585098266602,0.048783063888549805,0.03305673599243164,0.2655334174633026,0.019763201475143433,0.03504199907183647,-0.11229363083839417,-0.0005910159088671207,0.2982909381389618,0.0,0.0,0.3,0.0,0.0,0.0,0.4,0.0,0.0,0.0,0.0,0.1985331317354659
0.5200003981590271,0,0.6500281095504761,46.10469055175781,-0.01452531199902296,0.3075616955757141,-0.010538339614868164,0.04782915115356445,0.03777027130126953,0.2823730707168579,0.005136388354003429,-0.043872516602277756,-0.17608410120010376,-0.17034174501895905,0.12160710990428925,0.0,0.0,0.3,0.0,0.0,0.0,0.4,0.0,0.0,0.0,0.0,0.20889802256776707
0.5400001406669617,0,2.395707607269287,46.109745025634766,-0.01463107205927372,0.307698130607605,-0.009515047073364258,0.052881717681884766,0.04117989540100098,0.22710935771465302,-0.025410369038581848,0.11649887263774872,0.15977437794208527,0.5619157552719116,0.22911398112773895,0.0,0.0,0.3,0.0,0.0,0.0,0.4,0.0,0.0,0.0,0.0,0.22008841707081192
0.5599998831748962,0,1.917211651802063,46.114707946777344,-0.015190353617072105,0.3096623420715332,-0.00414586067199707,0.062297821044921875,0.04496884346008301,0.24769529700279236,-0.04142453521490097,0.0897076427936554,0.22173404693603516,0.3906610906124115,0.14608080685138702,0.0,0.0,0.3,0.0,0.0,0.0,0.4,0.0,0.0,0.0,0.0,0.2321934376690387
0.5799996256828308,0,1.6161773204803467,46.12002944946289,-0.015998883172869682,0.3107973039150238,0.0001690387725830078,0.06851005554199219,0.047264814376831055,0.2650642395019531,-0.05531451106071472,0.05862472206354141,0.17249803245067596,0.2712022066116333,0.08732592314481735,0.0,0.0,0.3,0.0,0.0,0.0,0.4,0.0,0.0,0.0,0.0,0.2453144274394426
0.5999993681907654,0,1.478514313697815,46.1256217956543,-0.017016442492604256,0.31133541464805603,0.002725362777709961,0.07285952568054199,0.048743247985839844,0.2762860357761383,-0.06628173589706421,0.03768884390592575,0.10536901652812958,0.19598525762557983,0.059842098504304886,0.0,0.0,0.3,0.0,0.0,0.0,0.4,0.0,0.0,0.0,0.0,0.2595669914447933
0.6199991106987,0,1.4267604351043701,46.13135528564453,-0.01819881610572338,0.31152042746543884,0.0038836002349853516,0.07607436180114746,0.049903154373168945,0.2845434546470642,-0.07473055273294449,0.025739893317222595,0.059157345443964005,0.14576543867588043,0.05362720414996147,0.0,0.0,0.3,0.0,0.0,0.0,0.4,0.0,0.0,0.0,0.0,0.2750834413704863
0.6399988532066345,0,1.382243037223816,46.137229919433594,-0.019508305937051773,0.31155428290367126,0.004537105560302734,0.07839512825012207,0.051093101501464844,0.2916288673877716,-0.08095631003379822,0.022818587720394135,0.04415475204586983,0.0988369882106781,0.06332208216190338,0.0,0.0,0.3,0.0,0.0,0.0,0.4,0.0,0.0,0.0,0.0,0.29201573559615873
0.6599985957145691,0,1.3683478832244873,46.14326095581055,-0.020910734310746193,0.3116286098957062,0.0057828426361083984,0.07997465133666992,0.052468299865722656,0.29693323373794556,-0.08537739515304565,0.027668103575706482,0.06632379442453384,0.057411763817071915,0.07741820067167282,0.0,0.0,0.3,0.0,0.0,0.0,0.4,0.0,0.0,0.0,0.0,0.3105390307160247
0.6799983382225037,0,1.4574726819992065,46.14933395385742,-0.02237548679113388,0.3118618130683899,0.008143424987792969,0.08133506774902344,0.053885459899902344,0.29779040813446045,-0.0882016271352768,0.0353756919503212,0.10115398466587067,0.045774027705192566,0.08135354518890381,0.0,0.0,0.3,0.0,0.0,0.0,0.4,0.0,0.0,0.0,0.0,0.33085599131065785
0.6999980807304382,0,1.5536036491394043,46.155391693115234,-0.02388090267777443,0.31223419308662415,0.011176824569702148,0.08270549774169922,0.055277109146118164,0.2970964312553406,-0.08998274803161621,0.0396365225315094,0.1120840534567833,0.03818449750542641,0.08385836333036423,0.0,0.0,0.3,0.0,0.0,0.0,0.4,0.0,0.0,0.0,0.0,0.35320204465634847
0.7199978232383728,0,1.5903537273406982,46.16144561767578,-0.025411482900381088,0.3125945031642914,0.013996601104736328,0.08379650115966797,0.05673861503601074,0.2980455756187439,-0.09133142977952957,0.0357603020966053,0.0950116217136383,0.018834328278899193,0.09155462682247162,0.0,0.0,0.3,0.0,0.0,0.0,0.4,0.0,0.0,0.0,0.0,0.3778518189690576
0.7399975657463074,0,1.5473384857177734,46.16752624511719,-0.02695675753057003,0.3127444386482239,0.015824079513549805,0.08413124084472656,0.05843520164489746,0.3025955557823181,-0.09255091100931168,0.023834731429815292,0.04826878011226654,-0.022306645289063454,0.1045113354921341,0.0,0.0,0.3,0.0,0.0,0.0,0.4,0.0,0.0,0.0,0.0,0.40512707165842715
0.7599973082542419,0,1.4726481437683105,46.17375946044922,-0.028510158881545067,0.31250110268592834,0.016219377517700195,0.08318662643432617,0.06051230430603027,0.3122129440307617,-0.09413204342126846,0.005599401891231537,-0.010574880056083202,-0.07981053739786148,0.12071841955184937,0.0,0.0,0.3,0.0,0.0,0.0,0.4,0.0,0.0,0.0,0.0,0.4354065032142112
0.7799970507621765,0,2.0810017585754395,46.18013000488281,-0.029963627457618713,0.3114650547504425,0.014245748519897461,0.0807340145111084,0.06423163414001465,0.3247572183609009,-0.08539016544818878,-0.0965704619884491,-0.5882605314254761,-0.05355389043688774,0.33796846866607666,0.0,0.0,0.3,0.0,0.0,0.0,0.4,0.0,0.0,0.0,0.0,0.46913796989409695
0.7999967932701111,0,1.0075024366378784,46.186397552490234,-0.031090719625353813,0.30913591384887695,0.00924062728881836,0.07887387275695801,0.07147002220153809,0.30895882844924927,-0.06734425574541092,-0.07474970817565918,-0.1181478425860405,-0.11478359252214432,0.3883272409439087,0.0,0.0,0.3,0.0,0.0,0.0,0.4,0.0,0.0,0.0,0.0,0.506853763898984
0.8199965357780457,0,0.9446442127227783,46.19242858886719,-0.03194969519972801,0.30713343620300293,0.009230613708496094,0.07598400115966797,0.0794978141784668,0.30007249116897583,-0.052491530776023865,-0.06310299038887024,-0.07436604052782059,-0.1193719431757927,0.42634662985801697,0.0,0.0,0.3,0.0,0.0,0.0,0.4,0.0,0.0,0.0,0.0,0.5491898359794698
0.8399962782859802,0,0.8899660110473633,46.19834518432617,-0.03251396119594574,0.30532094836235046,0.009979248046875,0.07285618782043457,0.08836841583251953,0.2960394620895386,-0.03977915272116661,-0.05596914887428284,-0.031089024618268013,-0.130235955119133,0.47370216250419617,0.0,0.0,0.3,0.0,0.0,0.0,0.4,0.0,0.0,0.0,0.0,0.5969101092611498
0.8599960207939148,0,0.84828120470047,46.20417785644531,-0.032833319157361984,0.3037157356739044,0.011417388916015625,0.06989717483520508,0.09823465347290039,0.2914125323295593,-0.03047623112797737,-0.04644846171140671,-0.034794144332408905,-0.11267194151878357,0.5231739282608032,0.0,0.0,0.3,0.0,0.0,0.0,0.4,0.0,0.0,0.0,0.0,0.6509373962770281
0.8799957633018494,0,0.8137884140014648,46.209938049316406,-0.032978300005197525,0.30242642760276794,0.011884450912475586,0.06762194633483887,0.10916495323181152,0.28629568219184875,-0.024705393239855766,-0.03205546736717224,-0.09403427690267563,-0.07853629440069199,0.5747616291046143,0.0,0.0,0.3,0.0,0.0,0.0,0.4,0.0,0.0,0.0,0.0,0.7
0.8999955058097839,0,0.7958179712295532,46.21562576293945,-0.03301586955785751,0.30155685544013977,0.009651660919189453,0.0659019947052002,0.12131786346435547,0.2820511758327484,-0.0218944251537323,-0.01279057189822197,-0.19248083233833313,-0.06310097128152847,0.632114589214325,0.0,0.0,0.3,0.0,0.0,0.0,0.4,0.0,0.0,0.0,0.0,0.7
0.9199952483177185,0,0.8793082237243652,46.22123718261719,-0.0329781174659729,0.30122771859169006,0.005092144012451172,0.06498003005981445,0.13465571403503418,0.2762279212474823,-0.02069743536412716,0.012243255972862244,-0.26472729444503784,-0.03187716379761696,0.6804977059364319,0.0,0.0,0.3,0.0,0.0,0.0,0.4,0.0,0.0,0.0,0.0,0.7
0.9399949908256531,0,0.9699090123176575,46.226741790771484,-0.03288079425692558,0.3014698624610901,-0.0004131793975830078,0.06515240669250488,0.1488475799560547,0.26992619037628174,-0.02086341567337513,0.035745348781347275,-0.2803436517715454,0.009046793915331364,0.7137617468833923,0.0,0.0,0.3,0.0,0.0,0.0,0.4,0.0,0.0,0.0,0.0,0.7
0.9599947333335876,0,0.9818429350852966,46.232154846191406,-0.03274776041507721,0.30211570858955383,-0.0054934024810791016,0.06608104705810547,0.1636340618133545,0.2661595642566681,-0.022933905944228172,0.0488307923078537,-0.24194590747356415,0.026642749086022377,0.738502562046051,0.0,0.0,0.3,0.0,0.0,0.0,0.4,0.0,0.0,0.0,0.0,0.7
0.9799944758415222,0,2.173163890838623,46.237545013427734,-0.0326102189719677,0.3028721511363983,-0.008963823318481445,0.06707382202148438,0.17891168594360352,0.2664104104042053,-0.02695097029209137,0.04864048957824707,-0.15988396108150482,0.01626567728817463,0.7633577585220337,0.0,0.0,0.3,0.0,0.0,0.0,0.4,0.0,0.0,0.0,0.0,0.22859997720369868
0.9999942183494568,0,1.9991390705108643,46.24300765991211,-0.032491762191057205,0.30345526337623596,-0.010202646255493164,0.06752467155456543,0.19452953338623047,0.2720102071762085,-0.033014602959156036,0.037668514996767044,-0.05960298329591751,-0.008829513564705849,0.7637127637863159,0.0,0.0,0.3,0.0,0.0,0.0,0.4,0.0,0.0,0.0,0.0,0.2427121831391786
1.0199940204620361,0,1.7972605228424072,46.248687744140625,-0.032400067895650864,0.3036438226699829,-0.009199380874633789,0.06699895858764648,0.20978116989135742,0.2840713858604431,-0.040914807468652725,0.019215336069464684,0.02777605503797531,-0.05165059119462967,0.7520367503166199,0.0,0.0,0.3,0.0,0.0,0.0,0.4,0.0,0.0,0.0,0.0,0.25760234667006676
1.0399937629699707,0,1.1538747549057007,46.25449752807617,-0.032459571957588196,0.3029641807079315,-0.00778508186340332,0.06567764282226562,0.2228379249572754,0.2831144630908966,-0.0603458434343338,-0.07493797689676285,0.16155897080898285,-0.021521886810660362,0.5255151391029358,0.0,0.0,0.3,0.0,0.0,0.0,0.4,0.0,0.0,0.0,0.0,0.2732780701118364
1.0599935054779053,0,1.0003890991210938,46.260196685791016,-0.0328022800385952,0.3010643422603607,-0.0039446353912353516,0.06583023071289062,0.23183465003967285,0.27757933735847473,-0.07812933623790741,-0.0680309608578682,0.1632605940103531,0.02757902629673481,0.39634934067726135,0.0,0.0,0.3,0.0,0.0,0.0,0.4,0.0,0.0,0.0,0.0,0.28973724167410314
1.0799932479858398,0,0.9046938419342041,46.26605987548828,-0.03335955739021301,0.2993461489677429,0.00027632713317871094,0.06531977653503418,0.23869538307189941,0.28215935826301575,-0.09372450411319733,-0.05655189976096153,0.17547771334648132,-0.035055793821811676,0.30232101678848267,0.0,0.0,0.3,0.0,0.0,0.0,0.4,0.0,0.0,0.0,0.0,0.3069655138122695
1.0999929904937744,0,0.8664502501487732,46.272029876708984,-0.03410590812563896,0.2978206276893616,0.004164934158325195,0.06354475021362305,0.24385690689086914,0.28593680262565613,-0.10801529139280319,-0.04562879726290703,0.1509821116924286,-0.08567637950181961,0.2300635576248169,0.0,0.0,0.3,0.0,0.0,0.0,0.4,0.0,0.0,0.0,0.0,0.3249333930557742
1.119992733001709,0,0.8713210225105286,46.278106689453125,-0.03504639118909836,0.29654109477996826,0.007172584533691406,0.06122231483459473,0.24785733222961426,0.2861996591091156,-0.12051365524530411,-0.03276486694812775,0.120435930788517,-0.10223748534917831,0.18765999376773834,0.0,0.0,0.3,0.0,0.0,0.0,0.4,0.0,0.0,0.0,0.0,0.34359293349131753
1.1399924755096436,0,0.8774319291114807,46.28425598144531,-0.03618394210934639,0.29563912749290466,0.009593963623046875,0.05898928642272949,0.25144171714782715,0.28503406047821045,-0.1317068636417389,-0.013158474117517471,0.10859252512454987,-0.09487947076559067,0.1811457723379135,0.0,0.0,0.3,0.0,0.0,0.0,0.4,0.0,0.0,0.0,0.0,0.36287404766805104
1.1599922180175781,0,0.9275974035263062,46.29043960571289,-0.03751485422253609,0.2953031063079834,0.012454986572265625,0.05732989311218262,0.255143404006958,0.2817559540271759,-0.14142537117004395,0.014966113492846489,0.1374215930700302,-0.06888743489980698,0.19349278509616852,0.0,0.0,0.3,0.0,0.0,0.0,0.4,0.0,0.0,0.0,0.0,0.3826804795624443
1.1799919605255127,0,1.1198211908340454,46.296627044677734,-0.03902411088347435,0.2956039011478424,0.017004966735839844,0.05672335624694824,0.25878262519836426,0.27484431862831116,-0.14954495429992676,0.04256851226091385,0.19249804317951202,-0.024420734494924545,0.18843501806259155,0.0,0.0,0.3,0.0,0.0,0.0,0.4,0.0,0.0,0.0,0.0,0.40288552616758966
1.1999917030334473,0,1.3229622840881348,46.302703857421875,-0.04069840908050537,0.29641035199165344,0.02269148826599121,0.0569918155670166,0.2621500492095947,0.2672954797744751,-0.15661431849002838,0.06189550459384918,0.21341751515865326,0.003544918028637767,0.17715159058570862,0.0,0.0,0.3,0.0,0.0,0.0,0.4,0.0,0.0,0.0,0.0,0.42332764863435324
1.2199914455413818,0,1.398210048675537,46.30869674682617,-0.04252279922366142,0.2974616289138794,0.02803182601928711,0.057434797286987305,0.26529693603515625,0.26184117794036865,-0.16335631906986237,0.06844566017389297,0.17961430549621582,-0.004648558329790831,0.16980034112930298,0.0,0.0,0.3,0.0,0.0,0.0,0.4,0.0,0.0,0.0,0.0,0.44380618118576864
1.2399911880493164,0,1.3847732543945312,46.314666748046875,-0.044486358761787415,0.2984730899333954,0.03194141387939453,0.05737876892089844,0.26842761039733887,0.25959864258766174,-0.1708492636680603,0.06324602663516998,0.12227822840213776,-0.03100425750017166,0.1726115643978119,0.0,0.0,0.3,0.0,0.0,0.0,0.4,0.0,0.0,0.0,0.0,0.46407742519581213
1.259990930557251,0,1.3165483474731445,46.32067108154297,-0.0465884804725647,0.2992030084133148,0.03399085998535156,0.05635643005371094,0.2717885971069336,0.2618583142757416,-0.17997509241104126,0.04880102723836899,0.05246170610189438,-0.07472949475049973,0.18345902860164642,0.0,0.0,0.3,0.0,0.0,0.0,0.4,0.0,0.0,0.0,0.0,0.4838515034330996
1.2799906730651855,0,1.1869759559631348,46.326717376708984,-0.048687249422073364,0.29925501346588135,0.033685922622680664,0.05404067039489746,0.2767183780670166,0.26643115282058716,-0.1735369712114334,-0.04491254687309265,-0.3853503167629242,-0.03617497533559799,0.4044703543186188,0.0,0.0,0.3,0.0,0.0,0.0,0.4,0.0,0.0,0.0,0.0,0.5027904387928627
1.2999904155731201,0,1.0516372919082642,46.3325080871582,-0.05041123554110527,0.2979913055896759,0.03326559066772461,0.05413174629211426,0.2861342430114746,0.2496340125799179,-0.14363475143909454,-0.030603276565670967,0.13336247205734253,0.02445318177342415,0.5203242301940918,0.0,0.0,0.3,0.0,0.0,0.0,0.4,0.0,0.0,0.0,0.0,0.5205080020420063
1.3199901580810547,0,0.9233068227767944,46.338134765625,-0.051645904779434204,0.2970101833343506,0.03682231903076172,0.05374002456665039,0.2967994213104248,0.2545004189014435,-0.11939741671085358,-0.02209291234612465,0.04847128689289093,0.013449514284729958,0.5501685738563538,0.0,0.0,0.3,0.0,0.0,0.0,0.4,0.0,0.0,0.0,0.0,0.536571928799164
1.3399899005889893,0,0.9147151708602905,46.34375762939453,-0.05235299468040466,0.2961485683917999,0.03976631164550781,0.053211212158203125,0.30800485610961914,0.2611599862575531,-0.09856501966714859,-0.0169071052223444,0.046044208109378815,0.019514743238687515,0.5791445970535278,0.0,0.0,0.3,0.0,0.0,0.0,0.4,0.0,0.0,0.0,0.0,0.5505091175727069
1.3599896430969238,0,0.8997370600700378,46.349388122558594,-0.052636999636888504,0.29544708132743835,0.04252052307128906,0.05309104919433594,0.3197774887084961,0.2649784982204437,-0.08368181437253952,-0.008845487609505653,-0.0047658029943704605,0.04556854069232941,0.6047868132591248,0.0,0.0,0.3,0.0,0.0,0.0,0.4,0.0,0.0,0.0,0.0,0.561814365966548
1.3799893856048584,0,0.8965533375740051,46.35502243041992,-0.052630361169576645,0.2950165271759033,0.0430753231048584,0.053633928298950195,0.33209657669067383,0.2665945589542389,-0.07440055161714554,0.004617735743522644,-0.11598218977451324,0.07444216310977936,0.6279891133308411,0.0,0.0,0.3,0.0,0.0,0.0,0.4,0.0,0.0,0.0,0.0,0.5699630595193227
1.399989128112793,0,0.9942071437835693,46.36062240600586,-0.05243464931845665,0.2949758470058441,0.03937101364135742,0.05457258224487305,0.34503674507141113,0.2674345076084137,-0.06895405799150467,0.023530147969722748,-0.27431026101112366,0.08039720356464386,0.6546352505683899,0.0,0.0,0.3,0.0,0.0,0.0,0.4,0.0,0.0,0.0,0.0,0.5744279810601884
1.4199888706207275,0,1.1770374774932861,46.36621856689453,-0.05209369584918022,0.29544582962989807,0.03242945671081543,0.05606842041015625,0.358539342880249,0.26644042134284973,-0.06505058705806732,0.047453898936510086,-0.3721291422843933,0.09615963697433472,0.6748825311660767,0.0,0.0,0.3,0.0,0.0,0.0,0.4,0.0,0.0,0.0,0.0,0.57470005394537
1.439988613128662,0,1.253490686416626,46.37177658081055,-0.051630109548568726,0.2964340150356293,0.024549245834350586,0.05824923515319824,0.37239742279052734,0.2648649215698242,-0.0627841204404831,0.06878002732992172,-0.380758136510849,0.11202774941921234,0.6862471103668213,0.0,0.0,0.3,0.0,0.0,0.0,0.4,0.0,0.0,0.0,0.0,0.5703123847388986
1.4599883556365967,0,1.1889039278030396,46.37732696533203,-0.05107406899333,0.29774966835975647,0.017401695251464844,0.06071352958679199,0.3864622116088867,0.2651430070400238,-0.06309343129396439,0.07853934913873672,-0.3255644738674164,0.1074305921792984,0.6932422518730164,0.0,0.0,0.3,0.0,0.0,0.0,0.4,0.0,0.0,0.0,0.0,0.5608664680788683
1.4799880981445312,0,1.0482916831970215,46.3829345703125,-0.0504612922668457,0.2990925908088684,0.012218952178955078,0.06284642219543457,0.40068721771240234,0.2685994505882263,-0.06633275747299194,0.07477270066738129,-0.22454342246055603,0.07864494621753693,0.7030341625213623,0.0,0.0,0.3,0.0,0.0,0.0,0.4,0.0,0.0,0.0,0.0,0.5460589213116253
1.4999878406524658,0,0.9638827443122864,46.388668060302734,-0.04981563985347748,0.30017995834350586,0.00948953628540039,0.06412982940673828,0.41513800621032715,0.27689212560653687,-0.07214293628931046,0.0605882927775383,-0.11954525113105774,0.038224995136260986,0.7200130820274353,0.0,0.0,0.3,0.0,0.0,0.0,0.4,0.0,0.0,0.0,0.0,0.5257067105746198
1.5199875831604004,0,0.9627834558486938,46.394657135009766,-0.04913861304521561,0.30081385374069214,0.008977890014648438,0.06414198875427246,0.4299478530883789,0.2911330461502075,-0.08042674511671066,0.04061790555715561,-0.024335281923413277,-0.017867568880319595,0.7460640668869019,0.0,0.0,0.3,0.0,0.0,0.0,0.4,0.0,0.0,0.0,0.0,0.49976860110638843
1.539987325668335,0,0.7218118906021118,46.40083694458008,-0.04854629561305046,0.30048277974128723,0.009293079376220703,0.06274676322937012,0.4432671070098877,0.2931026518344879,-0.0988614484667778,-0.06616396456956863,0.0025826990604400635,-0.09477052837610245,0.5401588082313538,0.0,0.0,0.3,0.0,0.0,0.0,0.4,0.0,0.0,0.0,0.0,0.46836058792268015
1.5599870681762695,0,0.7957995533943176,46.40690231323242,-0.04815824329853058,0.29866325855255127,0.011423826217651367,0.06116437911987305,0.4527907371520996,0.2852483093738556,-0.1102302074432373,-0.06330142170190811,0.10542058199644089,-0.047230031341314316,0.43620890378952026,0.0,0.0,0.3,0.0,0.0,0.0,0.4,0.0,0.0,0.0,0.0,0.43176338096074207
1.579986810684204,0,0.7772417664527893,46.41305923461914,-0.047903161495923996,0.29701098799705505,0.014588117599487305,0.05925750732421875,0.4607710838317871,0.28655752539634705,-0.12174477428197861,-0.05098531395196915,0.11269368976354599,-0.09020278602838516,0.36964160203933716,0.0,0.0,0.3,0.0,0.0,0.0,0.4,0.0,0.0,0.0,0.0,0.39042062448728243
1.5999865531921387,0,0.7411539554595947,46.41935729980469,-0.04775906354188919,0.29557791352272034,0.01737523078918457,0.05646657943725586,0.46740174293518066,0.28791704773902893,-0.13300767540931702,-0.03991702198982239,0.098599374294281,-0.12270169705152512,0.30779948830604553,0.0,0.0,0.3,0.0,0.0,0.0,0.4,0.0,0.0,0.0,0.0,0.3449273617685056
1.6199862957000732,0,0.697002112865448,46.425750732421875,-0.04774753376841545,0.29439979791641235,0.01947498321533203,0.05346322059631348,0.47290468215942383,0.2863515615463257,-0.14324717223644257,-0.02725287899374962,0.07654182612895966,-0.1246987134218216,0.2607879638671875,0.0,0.0,0.3,0.0,0.0,0.0,0.4,0.0,0.0,0.0,0.0,0.2960092027207224
1.6399860382080078,0,0.6581147909164429,46.43222427368164,-0.04788406193256378,0.2936015725135803,0.020960569381713867,0.05079030990600586,0.4777665138244629,0.2834595739841461,-0.15238401293754578,-0.008286569267511368,0.06123964488506317,-0.11074426025152206,0.23735038936138153,0.0,0.0,0.3,0.0,0.0,0.0,0.4,0.0,0.0,0.0,0.0,0.24449357729579582
1.6599857807159424,0,0.6832450032234192,46.43868637084961,-0.04817371070384979,0.29337072372436523,0.022678852081298828,0.048891305923461914,0.48231029510498047,0.27913716435432434,-0.16055132448673248,0.019921792671084404,0.0875876247882843,-0.0743626207113266,0.22385647892951965,0.0,0.0,0.3,0.0,0.0,0.0,0.4,0.0,0.0,0.0,0.0,0.19127522459911742
1.679985523223877,0,0.8232994079589844,46.44514083862305,-0.04861835390329361,0.29379138350486755,0.026228666305541992,0.04822874069213867,0.4861745834350586,0.27130773663520813,-0.16711261868476868,0.04863106459379196,0.1501438021659851,-0.023578662425279617,0.1837703436613083,0.0,0.0,0.3,0.0,0.0,0.0,0.4,0.0,0.0,0.0,0.0,0.13727857021163414
1.6999852657318115,0,0.9734941124916077,46.4515266418457,-0.04921533167362213,0.29473772644996643,0.031100749969482422,0.04853630065917969,0.488999605178833,0.2634762227535248,-0.17301204800605774,0.0683983713388443,0.18294361233711243,0.006864130962640047,0.13008318841457367,0.0,0.0,0.3,0.0,0.0,0.0,0.4,0.0,0.0,0.0,0.0,0.08341982403423846
1.719985008239746,0,1.0323593616485596,46.45785140991211,-0.049952127039432526,0.29595041275024414,0.03595924377441406,0.04912543296813965,0.4907419681549072,0.2576100528240204,-0.1787433624267578,0.07613326609134674,0.1683371365070343,0.004968188237398863,0.07816600799560547,0.0,0.0,0.3,0.0,0.0,0.0,0.4,0.0,0.0,0.0,0.0,0.03057148665439746
1.7399847507476807,0,1.0081231594085693,46.46415328979492,-0.05081300437450409,0.2971416413784027,0.03963780403137207,0.049335479736328125,0.49153661727905273,0.25529444217681885,-0.18543097376823425,0.07159242033958435,0.12337486445903778,-0.01902022212743759,0.03213612735271454,0.0,0.0,0.3,0.0,0.0,0.0,0.4,0.0,0.0,0.0,0.0,-0.020468467400029333
1.7599844932556152,0,0.9314846992492676,46.47053527832031,-0.051783487200737,0.29806166887283325,0.0415802001953125,0.04868268966674805,0.4915428161621094,0.25750139355659485,-0.19388478994369507,0.057822614908218384,0.056611426174640656,-0.06153987720608711,-0.009465249255299568,0.0,0.0,0.3,0.0,0.0,0.0,0.4,0.0,0.0,0.0,0.0,-0.0690010724205885
1.7799842357635498,0,1.2749431133270264,46.47689437866211,-0.052737630903720856,0.29824644327163696,0.04176902770996094,0.04675769805908203,0.49204206466674805,0.263569712638855,-0.18924979865550995,-0.049392957240343094,-0.21187064051628113,-0.080536849796772,0.17849479615688324,0.0,0.0,0.3,0.0,0.0,0.0,0.4,0.0,0.0,0.0,0.0,-0.11444356725644061
1.7999839782714844,0,1.7344261407852173,46.48291778564453,-0.05335744097828865,0.2969692349433899,0.04229450225830078,0.04781031608581543,0.4959738254547119,0.24528621137142181,-0.1532486230134964,-0.02884444035589695,0.12726719677448273,0.13203579187393188,0.2019329071044922,0.0,0.0,0.3,0.0,0.0,0.0,0.4,0.0,0.0,0.0,0.0,-0.15633905243527418
1.819983720779419,0,1.6089783906936646,46.48863220214844,-0.053452201187610626,0.2960720956325531,0.04493570327758789,0.049575090408325195,0.49959421157836914,0.25346940755844116,-0.12740109860897064,-0.020840559154748917,0.04831644892692566,0.09146801382303238,0.17038977146148682,0.0,0.0,0.3,0.0,0.0,0.0,0.4,0.0,0.0,0.0,0.0,-0.19435897771691063
1.8399834632873535,0,1.6029669046401978,46.4942741394043,-0.053004201501607895,0.295265793800354,0.04731869697570801,0.050641775131225586,0.502558708190918,0.2621018886566162,-0.10511090606451035,-0.01596878282725811,0.051706310361623764,0.07307682186365128,0.14104034006595612,0.0,0.0,0.3,0.0,0.0,0.0,0.4,0.0,0.0,0.0,0.0,-0.22829931576842394
1.859983205795288,0,1.5921778678894043,46.49987030029297,-0.05212784931063652,0.2945907413959503,0.04956340789794922,0.05172562599182129,0.5049655437469482,0.2674315273761749,-0.08845817297697067,-0.009090056642889977,0.0048433635383844376,0.074582040309906,0.11226872354745865,0.0,0.0,0.3,0.0,0.0,0.0,0.4,0.0,0.0,0.0,0.0,-0.25807160391962763
1.8799829483032227,0,1.5844827890396118,46.50543212890625,-0.05095643922686577,0.2941550016403198,0.04982781410217285,0.053186655044555664,0.5068275928497314,0.2701091170310974,-0.07686368376016617,0.0032701976597309113,-0.09401508420705795,0.09021276235580444,0.08058532327413559,0.0,0.0,0.3,0.0,0.0,0.0,0.4,0.0,0.0,0.0,0.0,-0.2836901997901366
1.8999826908111572,0,1.619942307472229,46.51091384887695,-0.0495920330286026,0.29408538341522217,0.046132802963256836,0.05477762222290039,0.5081708431243896,0.271838903427124,-0.06906299293041229,0.021820297464728355,-0.23679570853710175,0.07961322367191315,0.05090104788541794,0.0,0.0,0.3,0.0,0.0,0.0,0.4,0.0,0.0,0.0,0.0,-0.30525711486164114
1.9199824333190918,0,1.7167847156524658,46.516334533691406,-0.04809322953224182,0.2944983243942261,0.039544105529785156,0.0566563606262207,0.5090487003326416,0.27131012082099915,-0.0627216324210167,0.04434834420681,-0.32246097922325134,0.08613768219947815,0.023528484627604485,0.0,0.0,0.3,0.0,0.0,0.0,0.4,0.0,0.0,0.0,0.0,-0.3229456920915648
1.9399821758270264,0,1.682013750076294,46.521671295166016,-0.046495143324136734,0.29538801312446594,0.03227424621582031,0.05903053283691406,0.5094692707061768,0.26978468894958496,-0.05783434212207794,0.0643424391746521,-0.31368574500083923,0.09572580456733704,-0.003200855106115341,0.0,0.0,0.3,0.0,0.0,0.0,0.4,0.0,0.0,0.0,0.0,-0.3369842145865067
1.959981918334961,0,1.8846478462219238,46.5269775390625,-0.04482714831829071,0.29658761620521545,0.025914669036865234,0.06153702735900879,0.5094363689422607,0.2696158289909363,-0.05497504398226738,0.07406935095787048,-0.2531191408634186,0.08965341746807098,-0.026195641607046127,0.0,0.0,0.3,0.0,0.0,0.0,0.4,0.0,0.0,0.0,0.0,-0.4486640164468304
1.9799816608428955,0,1.718409538269043,46.53232192993164,-0.04310937598347664,0.29783210158348083,0.0211794376373291,0.06358861923217773,0.5089161396026611,0.2728128731250763,-0.05464669689536095,0.07173419743776321,-0.17482949793338776,0.06134500354528427,-0.05362195149064064,0.0,0.0,0.3,0.0,0.0,0.0,0.4,0.0,0.0,0.0,0.0,-0.4702550855040718
1.99998140335083,0,1.5318399667739868,46.5377311706543,-0.04134708642959595,0.2988651990890503,0.018181800842285156,0.0646352767944336,0.5076916217803955,0.28092828392982483,-0.056749843060970306,0.060179658234119415,-0.09722732752561569,0.01064677070826292,-0.08631015568971634,0.0,0.0,0.3,0.0,0.0,0.0,0.4,0.0,0.0,0.0,0.0,-0.49258219410697796
2.01998233795166,0,1.3812572956085205,46.543373107910156,-0.039526838809251785,0.29948997497558594,0.0168912410736084,0.06417274475097656,0.5057284832000732,0.29506784677505493,-0.06046844273805618,0.04186788201332092,-0.01828598976135254,-0.053900741040706635,-0.11461302638053894,0.0,0.0,0.3,0.0,0.0,0.0,0.4,0.0,0.0,0.0,0.0,-0.5155739986666452
2.0399832725524902,0,0.9580549001693726,46.54920959472656,-0.03777647018432617,0.2992152273654938,0.015323400497436523,0.06195354461669922,0.5022399425506592,0.30033788084983826,-0.07632323354482651,-0.05030957609415054,-0.06276264041662216,-0.13048861920833588,-0.28111353516578674,0.0,0.0,0.3,0.0,0.0,0.0,0.4,0.0,0.0,0.0,0.0,-0.5391335629931171
2.0599842071533203,0,0.8712941408157349,46.55500411987305,-0.0362941175699234,0.29777151346206665,0.01559901237487793,0.060140371322631836,0.4956855773925781,0.29253557324409485,-0.08630482107400894,-0.042761653661727905,0.1148788258433342,-0.053074371069669724,-0.3664815425872803,0.0,0.0,0.3,0.0,0.0,0.0,0.4,0.0,0.0,0.0,0.0,-0.5631339855291739
2.0799851417541504,0,0.7927249670028687,46.56089401245117,-0.035016704350709915,0.296549916267395,0.01802206039428711,0.058531999588012695,0.48751306533813477,0.29413512349128723,-0.09608995914459229,-0.029551498591899872,0.14493654668331146,-0.08110955357551575,-0.4474795460700989,0.0,0.0,0.3,0.0,0.0,0.0,0.4,0.0,0.0,0.0,0.0,-0.5874137313172744
2.0999860763549805,0,0.7155015468597412,46.56697082519531,-0.03389618918299675,0.2955717146396637,0.02048969268798828,0.05619955062866211,0.4777259826660156,0.29679813981056213,-0.10456322133541107,-0.01756160892546177,0.14382696151733398,-0.11603695154190063,-0.5237737894058228,0.0,0.0,0.3,0.0,0.0,0.0,0.4,0.0,0.0,0.0,0.0,-0.6117717930051707
2.1199870109558105,0,0.662199854850769,46.573150634765625,-0.03293561562895775,0.2948777377605438,0.022661447525024414,0.05364823341369629,0.46651244163513184,0.29717034101486206,-0.11151590943336487,-0.0035449638962745667,0.13162879645824432,-0.11760828644037247,-0.5873093008995056,0.0,0.0,0.3,0.0,0.0,0.0,0.4,0.0,0.0,0.0,0.0,-0.6359628668931356
2.1399879455566406,0,0.643713116645813,46.57933807373047,-0.03213748335838318,0.2945501208305359,0.02458977699279785,0.05152273178100586,0.4541163444519043,0.29627689719200134,-0.1166234090924263,0.013421834446489811,0.13072150945663452,-0.0958772525191307,-0.6393137574195862,0.0,0.0,0.3,0.0,0.0,0.0,0.4,0.0,0.0,0.0,0.0,-0.659692803593872
2.1599888801574707,0,0.6768671274185181,46.585594177246094,-0.031491558998823166,0.2946750223636627,0.02682638168334961,0.05033159255981445,0.44066739082336426,0.2944502830505371,-0.11989977210760117,0.034115761518478394,0.14560545980930328,-0.05479617789387703,-0.6863239407539368,0.0,0.0,0.3,0.0,0.0,0.0,0.4,0.0,0.0,0.0,0.0,-0.6826146761052299
2.179989814758301,0,0.8162436485290527,46.59181594848633,-0.03098754771053791,0.2953357398509979,0.03036022186279297,0.050469160079956055,0.4263005256652832,0.2901917099952698,-0.12076380848884583,0.05836734175682068,0.1887110471725464,-0.0034628305584192276,-0.7266634106636047,0.0,0.0,0.3,0.0,0.0,0.0,0.4,0.0,0.0,0.0,0.0,-0.7
2.199990749359131,0,0.9500240087509155,46.598026275634766,-0.030605193227529526,0.2964647710323334,0.03471827507019043,0.0517268180847168,0.4111618995666504,0.2866266071796417,-0.12018104642629623,0.07599975913763046,0.19580477476119995,0.029178230091929436,-0.7614420056343079,0.0,0.0,0.3,0.0,0.0,0.0,0.4,0.0,0.0,0.0,0.0,-0.7
2.219991683959961,0,1.003166913986206,46.60415267944336,-0.030312001705169678,0.297810435295105,0.03848719596862793,0.05348634719848633,0.3953883647918701,0.285161554813385,-0.11864195019006729,0.08084791898727417,0.16145658493041992,0.03883363679051399,-0.789831280708313,0.0,0.0,0.3,0.0,0.0,0.0,0.4,0.0,0.0,0.0,0.0,-0.7
2.239992618560791,0,0.9603392481803894,46.61028289794922,-0.03007233701646328,0.2990683913230896,0.04046130180358887,0.055130720138549805,0.3790733814239502,0.28787001967430115,-0.11739856004714966,0.07248248159885406,0.08216513693332672,0.022993192076683044,-0.818606972694397,0.0,0.0,0.3,0.0,0.0,0.0,0.4,0.0,0.0,0.0,0.0,-0.7
2.259993553161621,0,0.9054479598999023,46.61650466918945,-0.02985341101884842,0.2999749779701233,0.04010152816772461,0.05602884292602539,0.3621695041656494,0.2957681119441986,-0.11691520363092422,0.054623544216156006,-0.00209851935505867,-0.014719411730766296,-0.8528298735618591,0.0,0.0,0.3,0.0,0.0,0.0,0.4,0.0,0.0,0.0,0.0,-0.7
2.279994487762451,0,0.7917308807373047,46.62273406982422,-0.029593436047434807,0.3000740706920624,0.03685903549194336,0.056311845779418945,0.3468515872955322,0.29866403341293335,-0.10801874101161957,-0.07736001908779144,-0.10868105292320251,-0.09818986803293228,-0.6448310017585754,0.0,0.0,0.3,0.0,0.0,0.0,0.4,0.0,0.0,0.0,0.0,-0.7
2.2999954223632812,0,2.023940086364746,46.62847137451172,-0.02905217930674553,0.2987286150455475,0.036147356033325195,0.0614778995513916,0.33440446853637695,0.26909154653549194,-0.06784003227949142,-0.026823431253433228,0.14545348286628723,0.40569639205932617,-0.6663079857826233,0.0,0.0,0.3,0.0,0.0,0.0,0.4,0.0,0.0,0.0,0.0,-0.7
2.3199963569641113,0,1.6608314514160156,46.633880615234375,-0.028102431446313858,0.29795289039611816,0.03626227378845215,0.06855916976928711,0.32176709175109863,0.27355116605758667,-0.04722876474261284,-0.019934242591261864,0.0150991789996624,0.2848241627216339,-0.6114715337753296,0.0,0.0,0.3,0.0,0.0,0.0,0.4,0.0,0.0,0.0,0.0,-0.7
2.3399972915649414,0,1.6126925945281982,46.63927459716797,-0.026828601956367493,0.29716411232948303,0.03701305389404297,0.07356691360473633,0.31019020080566406,0.2770284414291382,-0.028093528002500534,-0.017300914973020554,0.07653525471687317,0.20641832053661346,-0.5622904896736145,0.0,0.0,0.3,0.0,0.0,0.0,0.4,0.0,0.0,0.0,0.0,-0.7
2.3599982261657715,0,1.6660873889923096,46.64462661743164,-0.025310097262263298,0.29641517996788025,0.039472341537475586,0.07741785049438477,0.2994563579559326,0.2765964865684509,-0.013675264082849026,-0.012610634788870811,0.10060960054397583,0.15678191184997559,-0.5276361703872681,0.0,0.0,0.3,0.0,0.0,0.0,0.4,0.0,0.0,0.0,0.0,-0.7
2.3799991607666016,0,1.6613080501556396,46.64986801147461,-0.0236457958817482,0.29584014415740967,0.04146599769592285,0.08056163787841797,0.28911852836608887,0.2743093967437744,-0.003865574486553669,-0.0009136982262134552,0.052528657019138336,0.11987264454364777,-0.5191047191619873,0.0,0.0,0.3,0.0,0.0,0.0,0.4,0.0,0.0,0.0,0.0,-0.7
2.4000000953674316,0,1.5934088230133057,46.65508270263672,-0.021900059655308723,0.29565271735191345,0.04039645195007324,0.08295845985412598,0.27858948707580566,0.2717297077178955,0.003246614709496498,0.02114291302859783,-0.07918354868888855,0.0768527090549469,-0.5354676246643066,0.0,0.0,0.3,0.0,0.0,0.0,0.4,0.0,0.0,0.0,0.0,-0.7
2.4200010299682617,0,1.6089178323745728,46.66019058227539,-0.02010856382548809,0.29600584506988525,0.036090850830078125,0.08493256568908691,0.26790332794189453,0.2662782669067383,0.009418176487088203,0.04749174788594246,-0.18746307492256165,0.04978962242603302,-0.5409658551216125,0.0,0.0,0.3,0.0,0.0,0.0,0.4,0.0,0.0,0.0,0.0,-0.6654858554230763
2.440001964569092,0,1.6137683391571045,46.66522216796875,-0.018297435715794563,0.2968633770942688,0.03005671501159668,0.08656930923461914,0.2574129104614258,0.25942865014076233,0.01480224821716547,0.06828393787145615,-0.22877323627471924,0.023764263838529587,-0.5276759266853333,0.0,0.0,0.3,0.0,0.0,0.0,0.4,0.0,0.0,0.0,0.0,-0.6203645505012505
2.460002899169922,0,1.5283769369125366,46.670127868652344,-0.016477826982736588,0.2980315387248993,0.023844242095947266,0.0875236988067627,0.247330904006958,0.2537437677383423,0.01928897202014923,0.0783219262957573,-0.2172946035861969,-0.015465114265680313,-0.5064261555671692,0.0,0.0,0.3,0.0,0.0,0.0,0.4,0.0,0.0,0.0,0.0,-0.5674826799263145
2.480003833770752,0,1.3877779245376587,46.67496109008789,-0.01465203519910574,0.2992570102214813,0.018331289291381836,0.08735084533691406,0.23766207695007324,0.251146525144577,0.022920329123735428,0.07715356349945068,-0.1799180507659912,-0.0687866061925888,-0.4849732518196106,0.0,0.0,0.3,0.0,0.0,0.0,0.4,0.0,0.0,0.0,0.0,-0.5071354306598937
2.500004768371582,0,1.2400104999542236,46.67978286743164,-0.012812415137887001,0.3002989888191223,0.013921976089477539,0.08568882942199707,0.22833037376403809,0.25326260924339294,0.02597716450691223,0.06620416045188904,-0.1327153593301773,-0.13451236486434937,-0.4632799029350281,0.0,0.0,0.3,0.0,0.0,0.0,0.4,0.0,0.0,0.0,0.0,-0.4398244946454276
2.520005702972412,0,1.6243414878845215,46.6846809387207,-0.011085480451583862,0.30066803097724915,0.009579658508300781,0.08159327507019043,0.21839547157287598,0.2731166481971741,0.01494062040001154,-0.004000023007392883,-0.24127380549907684,-0.3621585965156555,-0.590712308883667,0.0,0.0,0.3,0.0,0.0,0.0,0.4,0.0,0.0,0.0,0.0,-0.36625407516966857
2.540006637573242,0,4.017335414886475,46.68960189819336,-0.009513447061181068,0.3003178536891937,-0.0006344318389892578,0.07533550262451172,0.20538926124572754,0.2487075924873352,0.010719573125243187,0.0609995499253273,-0.7545809149742126,-0.41443198919296265,-0.6656797528266907,0.0,0.0,0.3,0.0,0.0,0.0,0.4,0.0,0.0,0.0,0.0,-0.28731747704526217
2.5600075721740723,0,2.3456931114196777,46.694637298583984,-0.008078660815954208,0.3009004592895508,-0.012224435806274414,0.06738662719726562,0.19206929206848145,0.26747238636016846,-0.0019285513553768396,0.05546843260526657,-0.3354078233242035,-0.3236187696456909,-0.6714564561843872,0.0,0.0,0.3,0.0,0.0,0.0,0.4,0.0,0.0,0.0,0.0,-0.2040747795310941
2.5800085067749023,0,2.079596996307373,46.700172424316406,-0.006917202845215797,0.301266610622406,-0.01876378059387207,0.061124324798583984,0.17906594276428223,0.2902415692806244,-0.013930931687355042,0.04169236496090889,-0.1649007946252823,-0.23633794486522675,-0.6547322273254395,0.0,0.0,0.3,0.0,0.0,0.0,0.4,0.0,0.0,0.0,0.0,-0.11772264344037131
2.6000094413757324,0,2.135650634765625,46.706138610839844,-0.005969461053609848,0.30148831009864807,-0.021905183792114258,0.056763410568237305,0.1664748191833496,0.30754610896110535,-0.021289488300681114,0.03462265431880951,-0.021467696875333786,-0.13878434896469116,-0.6334401965141296,0.0,0.0,0.3,0.0,0.0,0.0,0.4,0.0,0.0,0.0,0.0,-0.02955772809561301
2.6200103759765625,0,2.5005767345428467,46.712432861328125,-0.005160375498235226,0.301724374294281,-0.021692514419555664,0.05434775352478027,0.15419292449951172,0.3197082281112671,-0.023881716653704643,0.03460932895541191,0.11802302300930023,-0.05308743938803673,-0.6172316670417786,0.0,0.0,0.3,0.0,0.0,0.0,0.4,0.0,0.0,0.0,0.0,0.059064518378515306
2.6400113105773926,0,3.1537158489227295,46.71894454956055,-0.004416604992002249,0.3020859360694885,-0.01832127571105957,0.05357193946838379,0.1419675350189209,0.32902324199676514,-0.02276553399860859,0.039399899542331696,0.23015204071998596,0.009971410036087036,-0.6137098073959351,0.0,0.0,0.3,0.0,0.0,0.0,0.4,0.0,0.0,0.0,0.0,0.14677376216230786
2.6600122451782227,0,3.875185966491699,46.725608825683594,-0.0036837412044405937,0.3026577830314636,-0.01277470588684082,0.05418825149536133,0.12957096099853516,0.33564865589141846,-0.019292818382382393,0.048526301980018616,0.27673661708831787,0.055062152445316315,-0.6128688454627991,0.0,0.0,0.3,0.0,0.0,0.0,0.4,0.0,0.0,0.0,0.0,0.2322293652993397
2.6800131797790527,0,4.33039665222168,46.732322692871094,-0.002957814373075962,0.30350711941719055,-0.00669407844543457,0.05602312088012695,0.11751031875610352,0.33618617057800293,-0.014678293839097023,0.06093356013298035,0.27958768606185913,0.09656810015439987,-0.576912522315979,0.0,0.0,0.3,0.0,0.0,0.0,0.4,0.0,0.0,0.0,0.0,0.31416361233615925
2.700014114379883,0,4.6314496994018555,46.739097595214844,-0.0022159903310239315,0.30459514260292053,-0.0013811588287353516,0.05881166458129883,0.10615658760070801,0.3374772369861603,-0.008290888741612434,0.06902074068784714,0.2217574119567871,0.12416660785675049,-0.5379625558853149,0.0,0.0,0.3,0.0,0.0,0.0,0.4,0.0,0.0,0.0,0.0,0.3914215863430229
2.720015048980713,0,4.840697765350342,46.74586868286133,-0.0014105549780651927,0.30571192502975464,0.001840829849243164,0.06195211410522461,0.09554195404052734,0.34166350960731506,-5.8178666222374886e-05,0.06570875644683838,0.12173037230968475,0.12626826763153076,-0.5020304918289185,0.0,0.0,0.3,0.0,0.0,0.0,0.4,0.0,0.0,0.0,0.0,0.4629958063271218
2.740015983581543,1,5.074206829071045,46.75276565551758,-0.00048623071052134037,0.30657947063446045,0.0022690296173095703,0.06472325325012207,0.08556413650512695,0.35027769207954407,0.009969007223844528,0.05088121071457863,-7.3971226811409e-05,0.09908070415258408,-0.47593748569488525,0.0,0.0,0.3,0.0,0.0,0.0,0.4,0.0,0.0,0.0,0.0,0.5280539440652245
2.760016918182373,1,4.3479509353637695,46.7598876953125,0.0006131856935098767,0.30697983503341675,-0.0001709461212158203,0.06633639335632324,0.07681393623352051,0.36558085680007935,0.024555306881666183,0.029819486662745476,-0.12971974909305573,0.03190372884273529,-0.3381160795688629,0.0,0.0,0.3,0.0,0.0,0.0,0.4,0.0,0.0,0.0,0.0,0.5859582706931952
2.780017852783203,1,2.230032205581665,46.76713943481445,0.001926311873830855,0.3065321743488312,-0.005400896072387695,0.06621217727661133,0.07441926002502441,0.37055733799934387,0.04612557962536812,-0.08677361905574799,0.20672085881233215,-0.19966064393520355,0.06869484484195709,0.0,0.0,0.3,0.0,0.0,0.0,0.4,0.0,0.0,0.0,0.0,0.6362759528657733
2.800018787384033,1,1.6772297620773315,46.77406311035156,0.003466570284217596,0.30484476685523987,-0.0061533451080322266,0.06632184982299805,0.07859396934509277,0.34415099024772644,0.06464066356420517,-0.0323348194360733,-0.1253833770751953,0.1558721363544464,0.2590828835964203,0.0,0.0,0.3,0.0,0.0,0.0,0.4,0.0,0.0,0.0,0.0,0.6787799060797911
2.8200197219848633,1,1.0835833549499512,46.78071594238281,0.005300171673297882,0.30404290556907654,-0.009633302688598633,0.06829953193664551,0.08578658103942871,0.33969801664352417,0.07509630918502808,-0.0028273221105337143,-0.11727101355791092,0.04377032816410065,0.4349958300590515,0.0,0.0,0.3,0.0,0.0,0.0,0.4,0.0,0.0,0.0,0.0,0.7
2.8400206565856934,1,0.7352641224861145,46.7873420715332,0.00728613929823041,0.3035704791545868,-0.009758234024047852,0.06745195388793945,0.09602499008178711,0.33773165941238403,0.08183345943689346,0.011489983648061752,-0.013759426772594452,-0.06915973126888275,0.5587785840034485,0.0,0.0,0.3,0.0,0.0,0.0,0.4,0.0,0.0,0.0,0.0,0.7
2.8600215911865234,1,0.6411033868789673,46.79388427734375,0.00941095408052206,0.3033166825771332,-0.007662057876586914,0.06527400016784668,0.10809850692749023,0.335121214389801,0.08615760505199432,0.020765239372849464,0.029944971203804016,-0.10661967843770981,0.6241506338119507,0.0,0.0,0.3,0.0,0.0,0.0,0.4,0.0,0.0,0.0,0.0,0.7
2.8800225257873535,1,0.5876250863075256,46.80033874511719,0.011660882271826267,0.30331191420555115,-0.005551576614379883,0.06305837631225586,0.12090516090393066,0.3332609236240387,0.08828196674585342,0.031430359929800034,0.004319358617067337,-0.09859339147806168,0.6430651545524597,0.0,0.0,0.3,0.0,0.0,0.0,0.4,0.0,0.0,0.0,0.0,0.7
2.9000234603881836,1,0.5608053803443909,46.806793212890625,0.014017618261277676,0.3036250174045563,-0.0049936771392822266,0.061150312423706055,0.1338059902191162,0.33259478211402893,0.08878565579652786,0.04527503252029419,-0.06057019904255867,-0.08707907795906067,0.6392421126365662,0.0,0.0,0.3,0.0,0.0,0.0,0.4,0.0,0.0,0.0,0.0,0.7
2.9200243949890137,1,0.6167355179786682,46.813167572021484,0.016452517360448837,0.30434057116508484,-0.006910562515258789,0.06000661849975586,0.14667439460754395,0.32860156893730164,0.08800268173217773,0.062345750629901886,-0.14724372327327728,-0.05478700250387192,0.6343970894813538,0.0,0.0,0.3,0.0,0.0,0.0,0.4,0.0,0.0,0.0,0.0,0.7
2.9400253295898438,0,0.7053444981575012,46.81937789916992,0.018940044566988945,0.30541959404945374,-0.010727167129516602,0.05980515480041504,0.15957069396972656,0.32248544692993164,0.08648597449064255,0.07419361174106598,-0.18933621048927307,-0.025057539343833923,0.6335492134094238,0.0,0.0,0.3,0.0,0.0,0.0,0.4,0.0,0.0,0.0,0.0,0.7
2.960026264190674,0,0.7769613862037659,46.825477600097656,0.02147679589688778,0.30662819743156433,-0.014946222305297852,0.06011390686035156,0.1726219654083252,0.3219693899154663,0.08650363236665726,0.07429654151201248,-0.2152022123336792,-0.008775314316153526,0.6525020003318787,0.0,0.0,0.3,0.0,0.0,0.0,0.4,0.0,0.0,0.0,0.0,0.7
2.980027198791504,0,0.766175389289856,46.831661224365234,0.024136170744895935,0.30768728256225586,-0.0190432071685791,0.06069350242614746,0.18637299537658691,0.3290199935436249,0.08862435072660446,0.06267043203115463,-0.19113218784332275,-0.004630877636373043,0.6915070414543152,0.0,0.0,0.3,0.0,0.0,0.0,0.4,0.0,0.0,0.0,0.0,0.7
3.000028133392334,0,0.7113629579544067,46.83798599243164,0.026934750378131866,0.3083591163158417,-0.022051095962524414,0.060984134674072266,0.20087051391601562,0.3407333791255951,0.0903940349817276,0.042534422129392624,-0.14518767595291138,-0.023327680304646492,0.731919527053833,0.0,0.0,0.3,0.0,0.0,0.0,0.4,0.0,0.0,0.0,0.0,0.7
3.020029067993164,0,1.9451624155044556,46.844486236572266,0.029713530093431473,0.3081848621368408,-0.025565385818481445,0.059661149978637695,0.2140190601348877,0.3594040274620056,0.07107783108949661,-0.054012902081012726,-0.5498170852661133,-0.35224494338035583,0.5730800032615662,0.0,0.0,0.3,0.0,0.0,0.0,0.4,0.0,0.0,0.0,0.0,0.7
3.040030002593994,0,7.576410293579102,46.85083770751953,0.03199752792716026,0.3069828152656555,-0.04258275032043457,0.059784889221191406,0.22361111640930176,0.3115599751472473,0.03699268773198128,0.015275091864168644,-1.3011308908462524,0.016387848183512688,0.4566870629787445,0.0,0.0,0.3,0.0,0.0,0.0,0.4,0.0,0.0,0.0,0.0,0.7
3.060030937194824,0,3.695603847503662,46.856956481933594,0.03391031175851822,0.3067155182361603,-0.06090950965881348,0.059674978256225586,0.23234915733337402,0.33060306310653687,0.01720757596194744,0.004902912303805351,-0.7413094639778137,-0.04325766861438751,0.42030444741249084,0.0,0.0,0.3,0.0,0.0,0.0,0.4,0.0,0.0,0.0,0.0,0.7
3.0800318717956543,0,3.242694854736328,46.863685607910156,0.03546648472547531,0.3060615658760071,-0.0752861499786377,0.05883169174194336,0.24063825607299805,0.35067683458328247,-0.004395476076751947,-0.011955974623560905,-0.588566780090332,-0.05794484540820122,0.40538573265075684,0.0,0.0,0.3,0.0,0.0,0.0,0.4,0.0,0.0,0.0,0.0,0.7
3.1000328063964844,0,2.987600803375244,46.87063980102539,0.03679031506180763,0.3051570951938629,-0.08724808692932129,0.05823826789855957,0.2486591339111328,0.35644930601119995,-0.016494128853082657,-0.02336704544723034,-0.4522680938243866,-0.0426863357424736,0.3971470892429352,0.0,0.0,0.3,0.0,0.0,0.0,0.4,0.0,0.0,0.0,0.0,0.7
3.1200337409973145,0,2.5687289237976074,46.87767791748047,0.0379793606698513,0.30417659878730774,-0.0956108570098877,0.05833792686462402,0.25667810440063477,0.3584135174751282,-0.023505154997110367,-0.025681162253022194,-0.2628887891769409,-0.015726841986179352,0.4095790386199951,0.0,0.0,0.3,0.0,0.0,0.0,0.4,0.0,0.0,0.0,0.0,0.7
3.1400346755981445,0,2.099705696105957,46.884788513183594,0.039118822664022446,0.30336034297943115,-0.09862446784973145,0.058983802795410156,0.2652437686920166,0.35971179604530334,-0.027588345110416412,-0.014857839792966843,-0.018242646008729935,-0.005878094583749771,0.44672784209251404,0.0,0.0,0.3,0.0,0.0,0.0,0.4,0.0,0.0,0.0,0.0,0.7
3.1600356101989746,0,1.9132241010665894,46.8919563293457,0.04025760293006897,0.30297592282295227,-0.09499669075012207,0.05993986129760742,0.2746548652648926,0.360075980424881,-0.031469643115997314,0.007870975881814957,0.2555503249168396,-0.004143111407756805,0.4904087483882904,0.0,0.0,0.3,0.0,0.0,0.0,0.4,0.0,0.0,0.0,0.0,0.7
3.1800365447998047,0,2.036501884460449,46.899078369140625,0.04139310121536255,0.30311378836631775,-0.08599114418029785,0.06151700019836426,0.28441834449768066,0.3569442629814148,-0.03595424070954323,0.030491698533296585,0.420733779668808,0.019068162888288498,0.5030707716941833,0.0,0.0,0.3,0.0,0.0,0.0,0.4,0.0,0.0,0.0,0.0,0.7
3.2000374794006348,0,2.0748372077941895,46.90613555908203,0.04251635819673538,0.30364862084388733,-0.0745537281036377,0.0634617805480957,0.29410743713378906,0.35280293226242065,-0.039567187428474426,0.0451231375336647,0.48219460248947144,0.027452442795038223,0.49959856271743774,0.0,0.0,0.3,0.0,0.0,0.0,0.4,0.0,0.0,0.0,0.0,0.7
3.220038414001465,0,1.8440780639648438,46.91317367553711,0.043641068041324615,0.3043375015258789,-0.06308293342590332,0.06502676010131836,0.30367541313171387,0.3515799641609192,-0.04181737080216408,0.048253826797008514,0.4483051896095276,-0.000575285404920578,0.4932675361633301,0.0,0.0,0.3,0.0,0.0,0.0,0.4,0.0,0.0,0.0,0.0,0.7
3.240039348602295,0,1.502482533454895,46.92022705078125,0.04480283707380295,0.3049201965332031,-0.05309128761291504,0.06548595428466797,0.31327199935913086,0.35498329997062683,-0.04256756603717804,0.040680065751075745,0.37144383788108826,-0.052428506314754486,0.4919201731681824,0.0,0.0,0.3,0.0,0.0,0.0,0.4,0.0,0.0,0.0,0.0,0.7
3.260040283203125,0,1.1705955266952515,46.92738342285156,0.04605374485254288,0.30517637729644775,-0.04524827003479004,0.06438565254211426,0.32309532165527344,0.3645108640193939,-0.04245433211326599,0.02542285993695259,0.2772825360298157,-0.1145825907588005,0.49754661321640015,0.0,0.0,0.3,0.0,0.0,0.0,0.4,0.0,0.0,0.0,0.0,0.7
3.280041217803955,0,2.445413827896118,46.934574127197266,0.04739801958203316,0.3046794533729553,-0.04389309883117676,0.06206798553466797,0.33402466773986816,0.36427170038223267,-0.03852587193250656,-0.07827147841453552,-0.637532651424408,-0.06122106686234474,0.6879437565803528,0.0,0.0,0.3,0.0,0.0,0.0,0.4,0.0,0.0,0.0,0.0,0.7
3.300042152404785,0,0.9776647090911865,46.941219329833984,0.04854988679289818,0.3033469617366791,-0.04863858222961426,0.06114459037780762,0.34728455543518066,0.31375959515571594,-0.04961663857102394,-0.020762013271450996,-0.12657961249351501,-0.08327890187501907,0.6535556316375732,0.0,0.0,0.3,0.0,0.0,0.0,0.4,0.0,0.0,0.0,0.0,0.7
3.3200430870056152,0,0.8594536781311035,46.947330474853516,0.0495385117828846,0.30260002613067627,-0.04806923866271973,0.0595545768737793,0.36056089401245117,0.3004264235496521,-0.04234754294157028,-0.012785106897354126,-0.011108815670013428,-0.10134077072143555,0.6791846752166748,0.0,0.0,0.3,0.0,0.0,0.0,0.4,0.0,0.0,0.0,0.0,0.7
3.3400440216064453,0,0.7970645427703857,46.9532356262207,0.050682347267866135,0.3019150197505951,-0.04519200325012207,0.05760908126831055,0.37439608573913574,0.29432395100593567,-0.0350855216383934,-0.01117466576397419,0.07270144671201706,-0.11209893226623535,0.7078972458839417,0.0,0.0,0.3,0.0,0.0,0.0,0.4,0.0,0.0,0.0,0.0,0.7
3.3600449562072754,0,0.7636817693710327,46.95896530151367,0.05196627229452133,0.3013265132904053,-0.04077267646789551,0.05589890480041504,0.3887627124786377,0.2890259921550751,-0.030715258792042732,-0.006275061517953873,0.11194410920143127,-0.09024475514888763,0.7336205244064331,0.0,0.0,0.3,0.0,0.0,0.0,0.4,0.0,0.0,0.0,0.0,0.7
3.3800458908081055,0,0.731779158115387,46.9645881652832,0.05334106832742691,0.30094102025032043,-0.036485910415649414,0.054895639419555664,0.40366077423095703,0.28472140431404114,-0.02964549884200096,0.0030278172343969345,0.08643296360969543,-0.0545392706990242,0.7595654726028442,0.0,0.0,0.3,0.0,0.0,0.0,0.4,0.0,0.0,0.0,0.0,0.7
3.4000468254089355,0,0.7264112830162048,46.97016143798828,0.05476124957203865,0.30081966519355774,-0.03416752815246582,0.05441021919250488,0.4192814826965332,0.28225553035736084,-0.03137502446770668,0.014695976860821247,0.017542503774166107,-0.04017083719372749,0.79225754737854,0.0,0.0,0.3,0.0,0.0,0.0,0.4,0.0,0.0,0.0,0.0,0.7
3.4200477600097656,0,0.7980390787124634,46.9757194519043,0.0561939999461174,0.3010552227497101,-0.033622026443481445,0.0547027587890625,0.4355809688568115,0.27866116166114807,-0.03502582758665085,0.031093692407011986,-0.037274789065122604,-0.005497952923178673,0.8185355067253113,0.0,0.0,0.3,0.0,0.0,0.0,0.4,0.0,0.0,0.0,0.0,0.7
3.4400486946105957,0,0.8948004245758057,46.98119354248047,0.05761374533176422,0.30169621109962463,-0.03375840187072754,0.05606842041015625,0.4522585868835449,0.27455592155456543,-0.040271464735269547,0.0477268286049366,-0.050258833914995193,0.03573001176118851,0.8307595252990723,0.0,0.0,0.3,0.0,0.0,0.0,0.4,0.0,0.0,0.0,0.0,0.7
3.460049629211426,0,0.9577409029006958,46.98662567138672,0.059001579880714417,0.3026147484779358,-0.03359723091125488,0.05816912651062012,0.4690861701965332,0.27276545763015747,-0.046924419701099396,0.055780068039894104,-0.026686320081353188,0.05808441340923309,0.8346992135047913,0.0,0.0,0.3,0.0,0.0,0.0,0.4,0.0,0.0,0.0,0.0,0.7
3.480050563812256,0,0.978143036365509,46.992130279541016,0.06034956872463226,0.30355337262153625,-0.03226590156555176,0.06040000915527344,0.4860367774963379,0.2747744917869568,-0.054874662309885025,0.05195046216249466,0.03389354050159454,0.05433058366179466,0.8427660465240479,0.0,0.0,0.3,0.0,0.0,0.0,0.4,0.0,0.0,0.0,0.0,0.7
