Timestamp,ActionMode,px,py,pz,roll,pitch,yaw,vx,vy,vz,wx,wy,wz,px_ref,py_ref,pz_ref,roll_ref,pitch_ref,yaw_ref,vx_ref,vy_ref,vz_ref,wx_ref,wy_ref,wz_ref,lyapunov_energy,motor_power,motor_energy_consumption
0.0,0,46.0,-3.431534136705272e-12,0.29996082186698914,0.0,0.0,0.0,1.2667268622923444e-10,6.851382655659322e-11,-0.019620005041360855,-4.1574604869865084e-10,1.7079390124408178e-09,-4.598844915992828e-10,0.0,0.0,0.3,0.0,0.0,0.0,0.4,0.0,0.0,0.0,0.0,0.0747867651027545,1.803350567817688,0.0,0.0
0.020000001415610313,0,46.00018310546875,2.017048427660484e-05,0.29782241582870483,1.239776611328125e-05,-0.0006248950958251953,0.0001163482666015625,0.026620138436555862,0.004396677482873201,-0.16218024492263794,-0.14065292477607727,-0.22156892716884613,0.024428142234683037,0.0,0.0,0.3,0.0,0.0,0.0,0.4,0.0,0.0,0.0,0.0,0.07701943924969945,1.946777582168579,245.7095947265625,0.0
0.04000000283122063,0,46.00099182128906,0.00012201299978187308,0.29431620240211487,-0.0057985782623291016,-0.00034546852111816406,0.001651763916015625,0.0465928316116333,0.0025899612810462713,-0.1617804318666458,-0.14496557414531708,0.19182756543159485,0.10395697504281998,0.0,0.0,0.3,0.0,0.0,0.0,0.4,0.0,0.0,0.0,0.0,0.07947964084883277,1.7361161708831787,967.9760131835938,2.457096121180143
0.06000000610947609,0,46.00223922729492,6.2317849369719625e-06,0.2916267216205597,-0.008594751358032227,0.003958940505981445,0.00433659553527832,0.07212734967470169,-0.0052308328449726105,-0.12204013019800186,-0.09168186783790588,0.2028140127658844,0.13702687621116638,0.0,0.0,0.3,0.0,0.0,0.0,0.4,0.0,0.0,0.0,0.0,0.08207851511501758,1.4999570846557617,689.0097045898438,14.593953059334638
0.07999997586011887,0,46.004005432128906,-0.00022042561613488942,0.28937432169914246,-0.010040521621704102,0.0068323612213134766,0.007417917251586914,0.09867401421070099,-0.01083654910326004,-0.10259439051151276,-0.05643560737371445,0.12109939754009247,0.13656988739967346,0.0,0.0,0.3,0.0,0.0,0.0,0.4,0.0,0.0,0.0,0.0,0.08481227867659578,1.1952447891235352,650.84228515625,31.163812953080253
0.09999994188547134,0,46.0062370300293,-0.0005634434055536985,0.2874327003955841,-0.011146783828735352,0.008069753646850586,0.009953022003173828,0.1176416277885437,-0.018011609092354774,-0.08581186830997467,-0.0577111653983593,0.06291122734546661,0.1008085161447525,0.0,0.0,0.3,0.0,0.0,0.0,0.4,0.0,0.0,0.0,0.0,0.08768676518021737,1.0203595161437988,625.47021484375,44.56231258571046
0.11999990791082382,0,46.008766174316406,-0.0009983006166294217,0.2858717739582062,-0.01224064826965332,0.008699655532836914,0.011629343032836914,0.129909485578537,-0.023129966109991074,-0.06590861082077026,-0.051286160945892334,0.04705643653869629,0.04356854036450386,0.0,0.0,0.3,0.0,0.0,0.0,0.4,0.0,0.0,0.0,0.0,0.09071048066490736,0.9414945840835571,620.2470092773438,57.3254159045768
0.13999992609024048,0,46.011478424072266,-0.0014801949728280306,0.28489699959754944,-0.01327824592590332,0.009593725204467773,0.011740446090698242,0.13808657228946686,-0.02656267210841179,-0.02438368834555149,-0.044134557247161865,0.06664755195379257,-0.030400913208723068,0.0,0.0,0.3,0.0,0.0,0.0,0.4,0.0,0.0,0.0,0.0,0.09389334044963825,0.9471877217292786,782.853759765625,69.78256698438594
0.15999996662139893,0,46.01432800292969,-0.001964941853657365,0.2851112186908722,-0.014098405838012695,0.011371135711669922,0.010271072387695312,0.14483720064163208,-0.02787286415696144,0.03609059378504753,-0.029345324262976646,0.09561551362276077,-0.10183544456958771,0.0,0.0,0.3,0.0,0.0,0.0,0.4,0.0,0.0,0.0,0.0,0.09724639083413232,1.0262181758880615,753.14306640625,83.81358742859237
0.18000000715255737,0,46.0173225402832,-0.00241109449416399,0.28659147024154663,-0.014425516128540039,0.014052867889404297,0.007399559020996094,0.15022413432598114,-0.026907093822956085,0.09308008849620819,-0.009317186661064625,0.12767936289310455,-0.16227847337722778,0.0,0.0,0.3,0.0,0.0,0.0,0.4,0.0,0.0,0.0,0.0,0.10078178287514841,1.1708862781524658,660.301025390625,99.17358681817649
0.20000004768371582,0,46.02042007446289,-0.002784976502880454,0.2890932857990265,-0.01439213752746582,0.017298460006713867,0.0034682750701904297,0.15540702641010284,-0.023511165753006935,0.13522985577583313,-0.0011431488674134016,0.13769389688968658,-0.2039429098367691,0.0,0.0,0.3,0.0,0.0,0.0,0.4,0.0,0.0,0.0,0.0,0.10451283356483886,1.3005450963974,555.4869384765625,113.30805638040846
0.22000008821487427,0,46.02362060546875,-0.0030646780505776405,0.2922266125679016,-0.014833688735961914,0.02048349380493164,-0.0011494159698486328,0.16151835024356842,-0.018799470737576485,0.15947453677654266,-0.03138474375009537,0.11996505409479141,-0.23028305172920227,0.0,0.0,0.3,0.0,0.0,0.0,0.4,0.0,0.0,0.0,0.0,0.10845412860651871,1.3769147396087646,498.1163330078125,125.46596065772763
0.24000012874603271,0,46.027008056640625,-0.003237925935536623,0.2956201136112213,-0.016293764114379883,0.022972583770751953,-0.006174325942993164,0.169674813747406,-0.013333752751350403,0.16649141907691956,-0.07091699540615082,0.08158210664987564,-0.24819594621658325,0.0,0.0,0.3,0.0,0.0,0.0,0.4,0.0,0.0,0.0,0.0,0.11262165281037767,1.4120423793792725,451.5215148925781,136.00201472445195
0.26000016927719116,0,46.030601501464844,-0.0033012786880135536,0.29891180992126465,-0.01879715919494629,0.024283647537231445,-0.011435747146606445,0.1814829707145691,-0.007495262660086155,0.1587233990430832,-0.11208348721265793,0.027837224304676056,-0.2627158463001251,0.0,0.0,0.3,0.0,0.0,0.0,0.4,0.0,0.0,0.0,0.0,0.11703294443301897,1.428084135055542,421.0472106933594,145.4984124484169
0.2800002098083496,0,46.03445053100586,-0.0032381187193095684,0.3013339936733246,-0.022587060928344727,0.02337646484375,-0.01560521125793457,0.20729666948318481,0.004833900835365057,0.07302413880825043,-0.15125055611133575,-0.20454415678977966,-0.09509251266717911,0.0,0.0,0.3,0.0,0.0,0.0,0.4,0.0,0.0,0.0,0.0,0.12170727378235037,0.9762011170387268,125.80110168457031,154.2241173873869
0.30000025033950806,0,46.0382080078125,-0.0027797643560916185,0.30390703678131104,-0.025868654251098633,0.02491474151611328,-0.01753067970275879,0.16760306060314178,0.029787255451083183,0.23577655851840973,-0.21073618531227112,0.32518497109413147,-0.11398594826459885,0.0,0.0,0.3,0.0,0.0,0.0,0.4,0.0,0.0,0.0,0.0,0.12666584834217975,1.93107271194458,1784.642822265625,159.692611593364
0.3200002908706665,0,46.041866302490234,-0.0019246889278292656,0.3082525432109833,-0.029993295669555664,0.029391765594482422,-0.019214868545532227,0.18389734625816345,0.04506177082657814,0.190678671002388,-0.10530143231153488,0.1355377584695816,-0.02907743863761425,0.0,0.0,0.3,0.0,0.0,0.0,0.4,0.0,0.0,0.0,0.0,0.13193204790153049,1.2004468441009521,273.2449645996094,178.79708954911865
0.34000033140182495,0,46.04591369628906,-0.0008116346434690058,0.311119943857193,-0.030242204666137695,0.03048539161682129,-0.019444704055786133,0.20419596135616302,0.0612027607858181,0.12459764629602432,-0.025538859888911247,0.02992194890975952,0.014580415561795235,0.0,0.0,0.3,0.0,0.0,0.0,0.4,0.0,0.0,0.0,0.0,0.13753169420171313,0.8453605771064758,275.1036071777344,199.37600912205897
0.3600003719329834,0,46.05025100708008,0.0005326633108779788,0.31281763315200806,-0.029202699661254883,0.03072953224182129,-0.019077539443969727,0.21651700139045715,0.07366769760847092,0.07554975152015686,0.02274293266236782,0.017491251230239868,0.0326676107943058,0.0,0.0,0.3,0.0,0.0,0.0,0.4,0.0,0.0,0.0,0.0,0.14349336065254353,0.7299204468727112,275.6163024902344,204.85950595243384
0.38000041246414185,0,46.0546989440918,0.0020175245590507984,0.31371915340423584,-0.027871370315551758,0.03104257583618164,-0.018357515335083008,0.2170061469078064,0.07806389778852463,0.041312627494335175,0.01886717975139618,0.01513204351067543,0.04708706587553024,0.0,0.0,0.3,0.0,0.0,0.0,0.4,0.0,0.0,0.0,0.0,0.14984872883028472,0.7055379152297974,261.4728088378906,210.36671620977148
0.4000004529953003,0,46.05901336669922,0.0034894649870693684,0.3140752911567688,-0.027571916580200195,0.03117656707763672,-0.017247438430786133,0.21051666140556335,0.0771855041384697,0.01615934818983078,-0.026361167430877686,-0.003333806060254574,0.06278523802757263,0.0,0.0,0.3,0.0,0.0,0.0,0.4,0.0,0.0,0.0,0.0,0.1566329998324991,0.7272472977638245,274.66253662109375,215.73761820747467
0.42000049352645874,0,46.063148498535156,0.004926903638988733,0.31407463550567627,-0.029042482376098633,0.03125882148742676,-0.015627145767211914,0.20190611481666565,0.07589557766914368,0.0007170960307121277,-0.09161223471164703,-0.007829127833247185,0.08285766839981079,0.0,0.0,0.3,0.0,0.0,0.0,0.4,0.0,0.0,0.0,0.0,0.1638853702010781,0.8146451115608215,281.3110046386719,221.09898252715783
0.4400005340576172,0,46.067081451416016,0.006344115361571312,0.3138708472251892,-0.03210282325744629,0.03162050247192383,-0.013530969619750977,0.19255687296390533,0.07530202716588974,-0.009256572462618351,-0.14276732504367828,0.002536261919885874,0.10117634385824203,0.0,0.0,0.3,0.0,0.0,0.0,0.4,0.0,0.0,0.0,0.0,0.1716495841128689,0.9491667747497559,290.092529296875,226.65872920688133
0.46000057458877563,0,46.07085037231445,0.007786103058606386,0.3134767711162567,-0.03577542304992676,0.03213143348693848,-0.011069536209106445,0.1926896870136261,0.08036581426858902,-0.021045289933681488,-0.15339834988117218,-0.0009953328408300877,0.11608278006315231,0.0,0.0,0.3,0.0,0.0,0.0,0.4,0.0,0.0,0.0,0.0,0.17997457597137595,1.0068291425704956,329.4520568847656,232.3727761260604
0.4800006151199341,0,46.07478332519531,0.009405456483364105,0.3127799332141876,-0.03949093818664551,0.03246593475341797,-0.008322954177856445,0.20221765339374542,0.09069395065307617,-0.035933755338191986,-0.15689796209335327,-0.010212093591690063,0.12856437265872955,0.0,0.0,0.3,0.0,0.0,0.0,0.4,0.0,0.0,0.0,0.0,0.18891522052949516,1.0186257362365723,339.6853332519531,238.5682345433067
0.5000006556510925,0,46.078922271728516,0.011225340887904167,0.31169137358665466,-0.04303383827209473,0.0323183536529541,-0.005360841751098633,0.21512845158576965,0.10201308131217957,-0.054197706282138824,-0.1455482542514801,-0.0353335365653038,0.14183183014392853,0.0,0.0,0.3,0.0,0.0,0.0,0.4,0.0,0.0,0.0,0.0,0.1985332113797167,0.9912249445915222,355.9091796875,245.25962200513067
0.5200003981590271,0,46.08334732055664,0.013069785200059414,0.3099936842918396,-0.04768490791320801,0.030399799346923828,-0.003740549087524414,0.23748153448104858,0.08922220021486282,-0.10958322137594223,-0.1781739741563797,-0.2414117455482483,-0.016407491639256477,0.0,0.0,0.3,0.0,0.0,0.0,0.4,0.0,0.0,0.0,0.0,0.20889809325342137,1.343790054321289,693.1937866210938,252.2155812311509
0.5400001406669617,0,46.08787155151367,0.014497444033622742,0.3083403706550598,-0.06875061988830566,0.02519679069519043,-0.006005525588989258,0.22588177025318146,0.057766739279031754,0.0028509055264294147,-1.5385438203811646,-0.47339871525764465,-0.17232051491737366,0.0,0.0,0.3,0.0,0.0,0.0,0.4,0.0,0.0,0.0,0.0,0.22008847931793862,12.264605522155762,1330.1463623046875,262.706475826392
0.5599998831748962,0,46.09264373779297,0.01551155373454094,0.3082040846347809,-0.09204220771789551,0.016364336013793945,-0.008520364761352539,0.25138118863105774,0.03237610310316086,0.01982627995312214,-0.7441281676292419,-0.35944321751594543,-0.16679611802101135,0.0,0.0,0.3,0.0,0.0,0.0,0.4,0.0,0.0,0.0,0.0,0.2321934918637939,5.334837913513184,718.2539672851562,282.9396168186328
0.5799996256828308,0,46.09803771972656,0.01594109646975994,0.30827420949935913,-0.10505414009094238,0.009862184524536133,-0.01101231575012207,0.2818298041820526,0.006592045538127422,0.021418403834104538,-0.4350087344646454,-0.23657910525798798,-0.15977263450622559,0.0,0.0,0.3,0.0,0.0,0.0,0.4,0.0,0.0,0.0,0.0,0.24531447384493263,3.7714016437530518,649.7935791015625,303.4233563911154
0.5999993681907654,0,46.10395431518555,0.01589321345090866,0.3085159659385681,-0.1120607852935791,0.005684614181518555,-0.013590097427368164,0.30553486943244934,-0.011950481683015823,0.025171810761094093,-0.14839759469032288,-0.13159123063087463,-0.15468615293502808,0.0,0.0,0.3,0.0,0.0,0.0,0.4,0.0,0.0,0.0,0.0,0.2595670302076313,2.863517999649048,583.4832153320312,317.10365572428844
0.6199991106987,0,46.1102180480957,0.015585523098707199,0.3090311884880066,-0.11263108253479004,0.0035147666931152344,-0.016252756118774414,0.30797356367111206,-0.015199419111013412,0.03727055341005325,0.12372992932796478,-0.049226291477680206,-0.14310713112354279,0.0,0.0,0.3,0.0,0.0,0.0,0.4,0.0,0.0,0.0,0.0,0.27508347252345083,2.442797899246216,423.1496276855469,329.43626488912986
0.6399988532066345,0,46.11627960205078,0.015364614315330982,0.3099556565284729,-0.10719609260559082,0.002743244171142578,-0.01879143714904785,0.30164995789527893,-0.011592017486691475,0.05578015372157097,0.3468908369541168,-1.7852522432804108e-05,-0.12358221411705017,0.0,0.0,0.3,0.0,0.0,0.0,0.4,0.0,0.0,0.0,0.0,0.2920157590571303,2.3798978328704834,437.5440368652344,339.5024637193207
0.6599985957145691,0,46.122283935546875,0.015152208507061005,0.3113657534122467,-0.09684014320373535,0.0028798580169677734,-0.021119356155395508,0.3031251132488251,-0.012530876323580742,0.07804864645004272,0.50847989320755,0.02359120175242424,-0.10359860956668854,0.0,0.0,0.3,0.0,0.0,0.0,0.4,0.0,0.0,0.0,0.0,0.31053904628316564,2.459925413131714,411.30517578125,348.1092895539338
0.6799983382225037,0,46.128334045410156,0.014903467148542404,0.31327641010284424,-0.08417916297912598,0.0039980411529541016,-0.02323746681213379,0.3034359812736511,-0.014030387625098228,0.09891479462385178,0.5561250448226929,0.05985457822680473,-0.08495935052633286,0.0,0.0,0.3,0.0,0.0,0.0,0.4,0.0,0.0,0.0,0.0,0.33085599865358784,2.422679901123047,365.7583312988281,356.59767239443016
0.6999980807304382,0,46.13436508178711,0.014623580500483513,0.3155527412891388,-0.07180142402648926,0.005888223648071289,-0.025104761123657227,0.3036065101623535,-0.013950379565358162,0.11141104996204376,0.5044931769371033,0.0778384804725647,-0.06742749363183975,0.0,0.0,0.3,0.0,0.0,0.0,0.4,0.0,0.0,0.0,0.0,0.3532020433028519,2.1622934341430664,334.11749267578125,364.36820742138724
0.7199978232383728,0,46.14045715332031,0.014341897331178188,0.31793129444122314,-0.061540842056274414,0.007929325103759766,-0.026638269424438477,0.30550262331962585,-0.011524323374032974,0.11080344766378403,0.3937923312187195,0.07101021707057953,-0.0493311807513237,0.0,0.0,0.3,0.0,0.0,0.0,0.4,0.0,0.0,0.0,0.0,0.3778518082865902,1.8064361810684204,308.8377380371094,371.3668755548976
0.7399975657463074,0,46.14661407470703,0.014093940146267414,0.3201186954975128,-0.054213762283325195,0.009538650512695312,-0.027739763259887695,0.3112867772579193,-0.007253179792314768,0.09788999706506729,0.2684077322483063,0.04668581485748291,-0.03058985061943531,0.0,0.0,0.3,0.0,0.0,0.0,0.4,0.0,0.0,0.0,0.0,0.40512705082938744,1.524317979812622,296.0701599121094,377.79634508409134
0.7599973082542419,0,46.152950286865234,0.013909944333136082,0.3218688368797302,-0.04980969429016113,0.010277509689331055,-0.028355836868286133,0.32187554240226746,-0.0012527217622846365,0.07604162395000458,0.14522501826286316,0.006772461347281933,-0.014396021142601967,0.0,0.0,0.3,0.0,0.0,0.0,0.4,0.0,0.0,0.0,0.0,0.43540647120354664,1.3803046941757202,286.3017883300781,383.8453461840915
0.7799970507621765,0,46.159400939941406,0.013786790892481804,0.3225630521774292,-0.051523447036743164,0.010087728500366211,-0.027195215225219727,0.3285956382751465,0.006493077147752047,-0.01443987712264061,-0.1439230591058731,-0.09586744755506516,0.17526164650917053,0.0,0.0,0.3,0.0,0.0,0.0,0.4,0.0,0.0,0.0,0.0,0.46913792540730165,1.0399991273880005,94.71562957763672,389.6689906884355
0.7999967932701111,0,46.164981842041016,0.01373208500444889,0.32381340861320496,-0.05294537544250488,0.014537334442138672,-0.02449345588684082,0.2374354898929596,-0.0040346975438296795,0.17266781628131866,-0.019141506403684616,0.4246218204498291,0.11637607216835022,0.0,0.0,0.3,0.0,0.0,0.0,0.4,0.0,0.0,0.0,0.0,0.5068537053278931,2.4213225841522217,1513.400146484375,393.4791158130317
0.8199965357780457,0,46.16971969604492,0.013677955605089664,0.32707229256629944,-0.05365490913391113,0.021114587783813477,-0.021448373794555664,0.23156122863292694,-0.001119535882025957,0.14726999402046204,-0.014949057251214981,0.22356393933296204,0.22898539900779724,0.0,0.0,0.3,0.0,0.0,0.0,0.4,0.0,0.0,0.0,0.0,0.5491897613323482,1.7191412448883057,344.8066101074219,409.5600665351255
0.8399962782859802,0,46.17441940307617,0.013651315122842789,0.3295077681541443,-0.05158257484436035,0.024355649948120117,-0.0161440372467041,0.23071780800819397,0.00483072642236948,0.11298087239265442,0.11726545542478561,0.12384705245494843,0.3123379945755005,0.0,0.0,0.3,0.0,0.0,0.0,0.4,0.0,0.0,0.0,0.0,0.5969100160724071,1.4041001796722412,335.8550720214844,428.1418948642956
0.8599960207939148,0,46.17909240722656,0.013684935867786407,0.3313503861427307,-0.04686284065246582,0.026710033416748047,-0.009422540664672852,0.22865375876426697,0.00842906255275011,0.08910568803548813,0.18201667070388794,0.08413122594356537,0.36985138058662415,0.0,0.0,0.3,0.0,0.0,0.0,0.4,0.0,0.0,0.0,0.0,0.6509372814902826,1.3505892753601074,340.6632995605469,434.94842405309345
0.8799957633018494,0,46.18370056152344,0.013737579807639122,0.3328482210636139,-0.0417788028717041,0.02859330177307129,-0.0016376972198486328,0.22662515938282013,0.009053509682416916,0.07566940039396286,0.1687164306640625,0.06823411583900452,0.4152340888977051,0.0,0.0,0.3,0.0,0.0,0.0,0.4,0.0,0.0,0.0,0.0,0.7,1.3110930919647217,339.9168395996094,441.71352066985736
0.8999955058097839,0,46.188228607177734,0.013778869062662125,0.3340272605419159,-0.03825020790100098,0.029972553253173828,0.007134199142456055,0.2265140861272812,0.0078531289473176,0.04671558737754822,0.09447984397411346,0.03354781121015549,0.4587569236755371,0.0,0.0,0.3,0.0,0.0,0.0,0.4,0.0,0.0,0.0,0.0,0.7,1.1078124046325684,203.87289428710938,448.51923443946606
0.9199952483177185,0,46.19274139404297,0.013775703497231007,0.3344455063343048,-0.036829233169555664,0.03110671043395996,0.016811609268188477,0.22357822954654694,0.00512019544839859,0.009383782744407654,0.014494432136416435,0.028507636860013008,0.49164384603500366,0.0,0.0,0.3,0.0,0.0,0.0,0.4,0.0,0.0,0.0,0.0,0.7,1.031643271446228,211.1359405517578,453.9570617675624
0.9399949908256531,0,46.19713592529297,0.013725340366363525,0.334247350692749,-0.037070512771606445,0.032616376876831055,0.027109384536743164,0.2184697687625885,0.002008546609431505,-0.019661257043480873,-0.04738524556159973,0.04743489623069763,0.515927791595459,0.0,0.0,0.3,0.0,0.0,0.0,0.4,0.0,0.0,0.0,0.0,0.7,1.0650837421417236,225.70767211914062,458.10709668521
0.9599947333335876,0,46.201412200927734,0.013630022294819355,0.3335164487361908,-0.03813672065734863,0.03442668914794922,0.03787088394165039,0.21447797119617462,-0.0011212034150958061,-0.04690256342291832,-0.06543295830488205,0.048472799360752106,0.535942018032074,0.0,0.0,0.3,0.0,0.0,0.0,0.4,0.0,0.0,0.0,0.0,0.7,1.0902915000915527,239.71142578125,462.47547657003696
0.9799944758415222,0,46.20565414428711,0.013484816998243332,0.332218199968338,-0.039000749588012695,0.035939931869506836,0.04903292655944824,0.21354863047599792,-0.004357490688562393,-0.07498296350240707,-0.04485960304737091,0.02536311000585556,0.5561762452125549,0.0,0.0,0.3,0.0,0.0,0.0,0.4,0.0,0.0,0.0,0.0,0.7,1.0531439781188965,262.6341857910156,467.12960762817846
0.9999942183494568,0,46.20995330810547,0.013318758457899094,0.3302820026874542,-0.03920388221740723,0.03672146797180176,0.06063055992126465,0.22538363933563232,-0.0031912773847579956,-0.1054328978061676,-0.022612301632761955,-0.004170561209321022,0.5827040672302246,0.0,0.0,0.3,0.0,0.0,0.0,0.4,0.0,0.0,0.0,0.0,0.7,0.9513208866119385,333.5611572265625,472.1529990688966
1.0199940204620361,0,46.214603424072266,0.013268371112644672,0.3276461064815521,-0.03910183906555176,0.03653311729431152,0.07279276847839355,0.24876537919044495,0.0005133291706442833,-0.13410720229148865,-0.014508234336972237,-0.044152308255434036,0.6182669401168823,0.0,0.0,0.3,0.0,0.0,0.0,0.4,0.0,0.0,0.0,0.0,0.7,0.8112724423408508,351.61114501953125,478.1148757412872
1.0399937629699707,0,46.21958541870117,0.013223462738096714,0.3241000771522522,-0.040315866470336914,0.035767555236816406,0.08408784866333008,0.25201675295829773,-0.008253620937466621,-0.2058388590812683,-0.07169319689273834,-0.01851618103682995,0.49260228872299194,0.0,0.0,0.3,0.0,0.0,0.0,0.4,0.0,0.0,0.0,0.0,0.7,1.0722445249557495,604.1307373046875,484.96653097025836
1.0599935054779053,0,46.224456787109375,0.012995073571801186,0.31968334317207336,-0.04041886329650879,0.03611135482788086,0.09323930740356445,0.24281121790409088,-0.018525436520576477,-0.20490366220474243,0.016966545954346657,0.024682212620973587,0.4363653361797333,0.0,0.0,0.3,0.0,0.0,0.0,0.4,0.0,0.0,0.0,0.0,0.7,1.188407301902771,461.98272705078125,494.5238267455249
1.0799932479858398,0,46.229209899902344,0.01268751360476017,0.3153482675552368,-0.038810014724731445,0.0358128547668457,0.10162830352783203,0.23657862842082977,-0.024347197264432907,-0.19844606518745422,0.0546954870223999,-0.030732814222574234,0.40310007333755493,0.0,0.0,0.3,0.0,0.0,0.0,0.4,0.0,0.0,0.0,0.0,0.7,1.2117350101470947,479.1477966308594,505.1848241312006
1.0999929904937744,0,46.23383331298828,0.012309272773563862,0.3111763894557953,-0.03691983222961426,0.03443455696105957,0.1094508171081543,0.23005501925945282,-0.031295064836740494,-0.18831729888916016,0.058620598167181015,-0.052123360335826874,0.3784838318824768,0.0,0.0,0.3,0.0,0.0,0.0,0.4,0.0,0.0,0.0,0.0,0.7,1.2428126335144043,489.83074951171875,514.5960082011959
1.119992733001709,0,46.23836135864258,0.011802616529166698,0.3072957992553711,-0.03498387336730957,0.033487796783447266,0.1169133186340332,0.22617827355861664,-0.042022839188575745,-0.17441576719284058,0.06909360736608505,-0.01762530393898487,0.3693859577178955,0.0,0.0,0.3,0.0,0.0,0.0,0.4,0.0,0.0,0.0,0.0,0.7,1.2535938024520874,542.532470703125,524.2856689104781
1.1399924755096436,0,46.2429313659668,0.011070974171161652,0.3038785457611084,-0.03284287452697754,0.03377819061279297,0.12443304061889648,0.2294650673866272,-0.05795431509613991,-0.15059010684490204,0.0902869701385498,0.04345222935080528,0.38369259238243103,0.0,0.0,0.3,0.0,0.0,0.0,0.4,0.0,0.0,0.0,0.0,0.7,1.212656021118164,583.1232299804688,534.6091681999576
1.1599922180175781,0,46.2476806640625,0.010065850801765919,0.30114591121673584,-0.030003786087036133,0.03557777404785156,0.13228654861450195,0.23437103629112244,-0.07306000590324402,-0.11624642461538315,0.13074670732021332,0.08491810411214828,0.4048609435558319,0.0,0.0,0.3,0.0,0.0,0.0,0.4,0.0,0.0,0.0,0.0,0.7,1.1771631240844727,550.7000122070312,545.8655802830879
1.1799919605255127,0,46.25246810913086,0.00890372321009636,0.2992027699947357,-0.026213884353637695,0.038155555725097656,0.14018678665161133,0.231051966547966,-0.0814046859741211,-0.07890700548887253,0.1475381702184677,0.10913319140672684,0.4055449366569519,0.0,0.0,0.3,0.0,0.0,0.0,0.4,0.0,0.0,0.0,0.0,0.7,1.2162189483642578,495.7624816894531,557.2036667297186
1.1999917030334473,0,46.25714874267578,0.007689230144023895,0.29796305298805237,-0.022241830825805664,0.04136204719543457,0.14787030220031738,0.21830029785633087,-0.0837651789188385,-0.04948613792657852,0.1368074268102646,0.14848487079143524,0.39583006501197815,0.0,0.0,0.3,0.0,0.0,0.0,0.4,0.0,0.0,0.0,0.0,0.7,1.3492053747177124,434.4964599609375,567.668156940789
1.2199914455413818,0,46.26152420043945,0.006489222869277,0.2971883714199066,-0.0190584659576416,0.04518628120422363,0.15531706809997559,0.2037368267774582,-0.08254336565732956,-0.033079952001571655,0.08863630890846252,0.15300074219703674,0.3843177258968353,0.0,0.0,0.3,0.0,0.0,0.0,0.4,0.0,0.0,0.0,0.0,0.7,1.443170428276062,415.0713195800781,576.9706265901448
1.2399911880493164,0,46.26569747924805,0.005321910604834557,0.29657214879989624,-0.017404794692993164,0.048580169677734375,0.16264915466308594,0.19472095370292664,-0.08156462013721466,-0.029058046638965607,0.026803918182849884,0.12563654780387878,0.3787083625793457,0.0,0.0,0.3,0.0,0.0,0.0,0.4,0.0,0.0,0.0,0.0,0.7,1.4656639099121094,409.6675720214844,585.4661950070738
1.259990930557251,0,46.26975631713867,0.004182269796729088,0.29587358236312866,-0.01737236976623535,0.05095982551574707,0.17006826400756836,0.1912454217672348,-0.08130151033401489,-0.033662982285022736,-0.036228589713573456,0.07827575504779816,0.379201203584671,0.0,0.0,0.3,0.0,0.0,0.0,0.4,0.0,0.0,0.0,0.0,0.7,1.4479243755340576,417.3413391113281,593.7134777412291
1.2799906730651855,0,46.273643493652344,0.0032400458585470915,0.29496118426322937,-0.022203683853149414,0.05398082733154297,0.17780303955078125,0.17535613477230072,-0.05351601541042328,-0.062230296432971954,-0.7035650014877319,0.44838204979896545,0.39779937267303467,0.0,0.0,0.3,0.0,0.0,0.0,0.4,0.0,0.0,0.0,0.0,0.7,4.375710487365723,809.5450439453125,601.9834603784409
1.2999904155731201,0,46.27730178833008,0.0029862718656659126,0.2935628890991211,-0.030953645706176758,0.061775922775268555,0.1861121654510498,0.18405380845069885,-0.030714835971593857,-0.07298208773136139,-0.13152965903282166,0.24508728086948395,0.4840365946292877,0.0,0.0,0.3,0.0,0.0,0.0,0.4,0.0,0.0,0.0,0.0,0.7,1.9628032445907593,421.59869384765625,614.2521662522529
1.3199901580810547,0,46.28097915649414,0.0031650112941861153,0.2926647961139679,-0.04125618934631348,0.06916403770446777,0.19463753700256348,0.1805146336555481,-0.00651896744966507,0.0018287580460309982,-0.8420686721801758,0.5573871731758118,0.42212551832199097,0.0,0.0,0.3,0.0,0.0,0.0,0.4,0.0,0.0,0.0,0.0,0.7,6.244633674621582,1032.48974609375,626.5634451253106
1.3399899005889893,0,46.284629821777344,0.0038001772481948137,0.29263705015182495,-0.051996469497680664,0.07759523391723633,0.2030942440032959,0.18278755247592926,0.0045619746670126915,0.01993779093027115,-0.2968224585056305,0.2828848958015442,0.4747815728187561,0.0,0.0,0.3,0.0,0.0,0.0,0.4,0.0,0.0,0.0,0.0,0.7,2.988142251968384,756.775634765625,641.1041423166068
1.3599896430969238,0,46.28829574584961,0.0046431273221969604,0.29319193959236145,-0.05373406410217285,0.08104443550109863,0.21282696723937988,0.187367245554924,0.015913894400000572,0.058714184910058975,-0.13552244007587433,0.07262355089187622,0.5202582478523254,0.0,0.0,0.3,0.0,0.0,0.0,0.4,0.0,0.0,0.0,0.0,0.7,2.1380763053894043,790.6885375976562,658.9965657643813
1.3799893856048584,0,46.29212951660156,0.005863148719072342,0.2943982481956482,-0.053278207778930664,0.08145737648010254,0.22350788116455078,0.19794169068336487,0.030616790056228638,0.0927744209766388,-0.029028475284576416,-0.0492146871984005,0.5483936667442322,0.0,0.0,0.3,0.0,0.0,0.0,0.4,0.0,0.0,0.0,0.0,0.7,1.7856149673461914,709.8135375976562,674.4710082581412
1.399989128112793,0,46.29612350463867,0.007427474483847618,0.2961929142475128,-0.051856279373168945,0.07993960380554199,0.2350635528564453,0.20755523443222046,0.04139925539493561,0.12078526616096497,0.012570150196552277,-0.14787769317626953,0.5835781097412109,0.0,0.0,0.3,0.0,0.0,0.0,0.4,0.0,0.0,0.0,0.0,0.7,1.5895586013793945,600.2125854492188,689.475835826405
1.4199888706207275,0,46.30023193359375,0.009263869374990463,0.29854652285575867,-0.05109143257141113,0.07744240760803223,0.2474370002746582,0.2153835892677307,0.0491691455245018,0.14800886809825897,-0.03642323985695839,-0.17753516137599945,0.6160545349121094,0.0,0.0,0.3,0.0,0.0,0.0,0.4,0.0,0.0,0.0,0.0,0.7,1.5064640045166016,541.0477905273438,702.5759283962077
1.439988613128662,0,46.30437469482422,0.011319044977426529,0.3013952076435089,-0.0516359806060791,0.07470178604125977,0.26033782958984375,0.21991503238677979,0.05397782102227211,0.16668707132339478,-0.062267228960990906,-0.2050466537475586,0.6289167404174805,0.0,0.0,0.3,0.0,0.0,0.0,0.4,0.0,0.0,0.0,0.0,0.7,1.4806972742080688,448.1888427734375,713.9883852232276
1.4599883556365967,0,46.30857467651367,0.013540459796786308,0.30451107025146484,-0.052710771560668945,0.07163047790527344,0.2734649181365967,0.22450169920921326,0.057925961911678314,0.1755874752998352,-0.07660271227359772,-0.21254390478134155,0.633204460144043,0.0,0.0,0.3,0.0,0.0,0.0,0.4,0.0,0.0,0.0,0.0,0.7,1.4578231573104858,420.86663818359375,723.8806241959435
1.4799880981445312,0,46.31279754638672,0.015913650393486023,0.30762094259262085,-0.05362439155578613,0.06826233863830566,0.2866785526275635,0.23055920004844666,0.06134822219610214,0.1688624620437622,-0.06396358460187912,-0.22797620296478271,0.6376617550849915,0.0,0.0,0.3,0.0,0.0,0.0,0.4,0.0,0.0,0.0,0.0,0.7,1.3970787525177002,383.40020751953125,732.5710671180684
1.4999878406524658,0,46.317134857177734,0.018430717289447784,0.3104259669780731,-0.053740739822387695,0.06424880027770996,0.29996228218078613,0.23951904475688934,0.06499418616294861,0.15060999989509583,-0.02655404806137085,-0.2618187665939331,0.6409401297569275,0.0,0.0,0.3,0.0,0.0,0.0,0.4,0.0,0.0,0.0,0.0,0.6363313156431935,1.2958422899246216,372.7074890136719,740.613632028934
1.5199875831604004,0,46.32158279418945,0.02113921009004116,0.31276050209999084,-0.05336403846740723,0.059709787368774414,0.31324052810668945,0.2535792589187622,0.07113080471754074,0.1296277940273285,-0.04501429572701454,-0.23778940737247467,0.6458532214164734,0.0,0.0,0.3,0.0,0.0,0.0,0.4,0.0,0.0,0.0,0.0,0.4776820924702578,1.321408748626709,377.0194091796875,748.1746116483998
1.539987325668335,0,46.32614517211914,0.02386699803173542,0.31399109959602356,-0.05595040321350098,0.0548243522644043,0.3251206874847412,0.264800101518631,0.05872401222586632,0.013685274869203568,-0.38713937997817993,-0.4350421130657196,0.49016469717025757,0.0,0.0,0.3,0.0,0.0,0.0,0.4,0.0,0.0,0.0,0.0,0.3139895757605125,2.3224267959594727,121.82219696044922,755.6717841059697
1.5599870681762695,0,46.33020782470703,0.026258764788508415,0.3141712248325348,-0.07398629188537598,0.04735898971557617,0.33137941360473633,0.20452705025672913,0.0412931926548481,0.08585011214017868,-1.253344178199768,-0.5461351275444031,0.14502301812171936,0.0,0.0,0.3,0.0,0.0,0.0,0.4,0.0,0.0,0.0,0.0,0.14596283586067846,9.103440284729004,1027.580322265625,760.6601359434933
1.579986810684204,0,46.33379364013672,0.028390061110258102,0.3153122663497925,-0.09088921546936035,0.037277936935424805,0.3333098888397217,0.21382488310337067,0.021885184571146965,0.07737856358289719,-0.5263156890869141,-0.43054887652397156,-0.0046797096729278564,0.0,0.0,0.3,0.0,0.0,0.0,0.4,0.0,0.0,0.0,0.0,-0.025734508437530716,3.858501434326172,685.9880981445312,772.1540131547397
1.5999865531921387,0,46.338130950927734,0.0301577877253294,0.3162812888622284,-0.0996096134185791,0.029819726943969727,0.33313894271850586,0.24718347191810608,-0.008921242319047451,0.06363064050674438,-0.289465993642807,-0.29893195629119873,-0.07440866529941559,0.0,0.0,0.3,0.0,0.0,0.0,0.4,0.0,0.0,0.0,0.0,-0.20044021144256763,2.7984042167663574,651.7486572265625,789.2894767437053
1.6199862957000732,0,46.3431396484375,0.03161393105983734,0.3171992897987366,-0.10359025001525879,0.024534225463867188,0.33148741722106934,0.2598511576652527,-0.025482896715402603,0.05949096754193306,-0.032330963760614395,-0.2085719108581543,-0.13990376889705658,0.0,0.0,0.3,0.0,0.0,0.0,0.4,0.0,0.0,0.0,0.0,-0.3774402302025934,2.2631025314331055,447.8408203125,802.6666720691162
1.6399860382080078,0,46.348106384277344,0.032917797565460205,0.3182859718799591,-0.10152554512023926,0.020612478256225586,0.32829785346984863,0.2519819736480713,-0.03003193810582161,0.06641874462366104,0.21802663803100586,-0.14851240813732147,-0.21417681872844696,0.0,0.0,0.3,0.0,0.0,0.0,0.4,0.0,0.0,0.0,0.0,-0.5559092507727946,2.2434067726135254,426.8876953125,813.662425276724
1.6599857807159424,0,46.352962493896484,0.0340840183198452,0.3196914494037628,-0.09371399879455566,0.01778244972229004,0.32323646545410156,0.2486330270767212,-0.039156246930360794,0.07861631363630295,0.43954670429229736,-0.07305443286895752,-0.307731568813324,0.0,0.0,0.3,0.0,0.0,0.0,0.4,0.0,0.0,0.0,0.0,-0.7,2.403517723083496,473.9931640625,822.4095978151479
1.679985523223877,0,46.35791778564453,0.0350065603852272,0.32147544622421265,-0.08138108253479004,0.01721477508544922,0.315701961517334,0.24970495700836182,-0.05339248850941658,0.09180284291505814,0.5925992727279663,0.03435889258980751,-0.42562952637672424,0.0,0.0,0.3,0.0,0.0,0.0,0.4,0.0,0.0,0.0,0.0,-0.7,2.2174835205078125,438.358642578125,831.4182904240613
1.6999852657318115,0,46.36295700073242,0.0356733612716198,0.3235551714897156,-0.06688904762268066,0.018485546112060547,0.305527925491333,0.24932155013084412,-0.06526049226522446,0.10025935620069504,0.6261407732963562,0.10386107861995697,-0.5419502258300781,0.0,0.0,0.3,0.0,0.0,0.0,0.4,0.0,0.0,0.0,0.0,-0.7,2.000119924545288,389.8862609863281,840.541691028792
1.719985008239746,0,46.36805725097656,0.0361153744161129,0.32564812898635864,-0.052756547927856445,0.020720243453979492,0.29320669174194336,0.25006502866744995,-0.07282692939043045,0.08831308037042618,0.5792165398597717,0.13301284611225128,-0.6355756521224976,0.0,0.0,0.3,0.0,0.0,0.0,0.4,0.0,0.0,0.0,0.0,-0.7,1.6778357028961182,284.7704772949219,848.8240334311911
1.7399847507476807,0,46.373268127441406,0.036394454538822174,0.3271346390247345,-0.04074215888977051,0.023021936416625977,0.279308557510376,0.25428175926208496,-0.07586650550365448,0.04718639701604843,0.47294414043426514,0.11136519908905029,-0.7072837948799133,0.0,0.0,0.3,0.0,0.0,0.0,0.4,0.0,0.0,0.0,0.0,-0.7,1.232804536819458,209.5550079345703,855.5705139546251
1.7599844932556152,0,46.378570556640625,0.036585427820682526,0.3274802267551422,-0.031938791275024414,0.024306535720825195,0.2642810344696045,0.26280972361564636,-0.07707678526639938,-0.006681125611066818,0.3356174826622009,0.06042979657649994,-0.7640542984008789,0.0,0.0,0.3,0.0,0.0,0.0,0.4,0.0,0.0,0.0,0.0,-0.7,0.8207257986068726,222.77044677734375,860.5137051644749
1.7799842357635498,0,46.38398361206055,0.03670834004878998,0.326323926448822,-0.03189969062805176,0.024442672729492188,0.25014543533325195,0.2728942632675171,-0.06975746154785156,-0.1192866638302803,-0.04116065427660942,-0.061768658459186554,-0.6093800067901611,0.0,0.0,0.3,0.0,0.0,0.0,0.4,0.0,0.0,0.0,0.0,-0.7,0.6127818822860718,59.66521453857422,864.8369040514069
1.7999839782714844,0,46.38882827758789,0.036860331892967224,0.32489413022994995,-0.030289888381958008,0.029171466827392578,0.237717866897583,0.21046410501003265,-0.05816920846700668,0.015266360715031624,0.25566035509109497,0.44529393315315247,-0.6188827157020569,0.0,0.0,0.3,0.0,0.0,0.0,0.4,0.0,0.0,0.0,0.0,-0.7,1.6893079280853271,1227.505126953125,867.6612243020952
1.819983720779419,0,46.393253326416016,0.03704686462879181,0.3247409760951996,-0.026958703994750977,0.0355534553527832,0.22588372230529785,0.22050629556179047,-0.049492284655570984,-0.02444297820329666,0.14165350794792175,0.2566612958908081,-0.5574147701263428,0.0,0.0,0.3,0.0,0.0,0.0,0.4,0.0,0.0,0.0,0.0,-0.7,1.1314730644226074,298.3641662597656,880.5327619989373
1.8399834632873535,0,46.39785385131836,0.03736856207251549,0.3235822021961212,-0.0224306583404541,0.038623809814453125,0.21467876434326172,0.23066939413547516,-0.04079519957304001,-0.06397518515586853,0.24334311485290527,0.1426648199558258,-0.5565295219421387,0.0,0.0,0.3,0.0,0.0,0.0,0.4,0.0,0.0,0.0,0.0,-0.7,0.998428463935852,323.0993957519531,895.7912584814483
1.859983205795288,0,46.402523040771484,0.03782406076788902,0.3217140734195709,-0.015794992446899414,0.04039287567138672,0.20337677001953125,0.2433585524559021,-0.03100857324898243,-0.09232310950756073,0.26931360363960266,0.09983732551336288,-0.5653752684593201,0.0,0.0,0.3,0.0,0.0,0.0,0.4,0.0,0.0,0.0,0.0,-0.7,0.9367794990539551,413.1964416503906,902.0058140905974
1.8799829483032227,0,46.40747833251953,0.0385180339217186,0.3194374740123749,-0.010169267654418945,0.0419764518737793,0.19196629524230957,0.26000088453292847,-0.020356712862849236,-0.10511177033185959,0.18639543652534485,0.0922967791557312,-0.5630668997764587,0.0,0.0,0.3,0.0,0.0,0.0,0.4,0.0,0.0,0.0,0.0,-0.7,0.7843800187110901,456.05548095703125,909.3686776694528
1.8999826908111572,0,46.41268539428711,0.03939604014158249,0.31713932752609253,-0.008275270462036133,0.043622493743896484,0.18071413040161133,0.27381351590156555,-0.012640712782740593,-0.0998605489730835,0.021305304020643234,0.08896178752183914,-0.5593228936195374,0.0,0.0,0.3,0.0,0.0,0.0,0.4,0.0,0.0,0.0,0.0,-0.7,0.6817229986190796,456.9172058105469,918.0610849827906
1.9199824333190918,0,46.418113708496094,0.04039015620946884,0.31511521339416504,-0.010194063186645508,0.04564523696899414,0.16967344284057617,0.28272223472595215,-0.006850147619843483,-0.0845198705792427,-0.11097747832536697,0.0986393466591835,-0.5594887137413025,0.0,0.0,0.3,0.0,0.0,0.0,0.4,0.0,0.0,0.0,0.0,-0.7,0.7746706008911133,429.819580078125,927.190694308855
1.9399821758270264,0,46.42364501953125,0.0414520762860775,0.3134267032146454,-0.014229059219360352,0.04807901382446289,0.15860533714294434,0.2885195016860962,-0.0024246410466730595,-0.06986009329557419,-0.16675534844398499,0.1071804016828537,-0.5717003345489502,0.0,0.0,0.3,0.0,0.0,0.0,0.4,0.0,0.0,0.0,0.0,-0.7,0.8773061633110046,406.9065246582031,936.0579480038984
1.959981918334961,0,46.42926025390625,0.04254910722374916,0.31195423007011414,-0.018785715103149414,0.05048346519470215,0.1472320556640625,0.29424983263015747,0.0009383376454934478,-0.062437888234853745,-0.16584908962249756,0.09502080827951431,-0.5890898704528809,0.0,0.0,0.3,0.0,0.0,0.0,0.4,0.0,0.0,0.0,0.0,0.4405985069428269,5.335887432098389,401.261474609375,944.4251013260953
1.9799816608428955,0,46.435054779052734,0.0436481349170208,0.31050610542297363,-0.022897005081176758,0.05209517478942871,0.13623428344726562,0.30213966965675354,0.004499166738241911,-0.06270897388458252,-0.14911706745624542,0.03958369046449661,-0.4900910258293152,0.0,0.0,0.3,0.0,0.0,0.0,0.4,0.0,0.0,0.0,0.0,0.46514097771712587,4.640041828155518,516.9443969726562,952.5066772703474
1.99998140335083,0,46.441017150878906,0.04467344284057617,0.30894994735717773,-0.02618718147277832,0.05208706855773926,0.1286754608154297,0.30516842007637024,0.0014415893238037825,-0.0654730498790741,-0.09937047213315964,-0.03439142554998398,-0.310085654258728,0.0,0.0,0.3,0.0,0.0,0.0,0.4,0.0,0.0,0.0,0.0,0.49083897126371917,3.3793585300445557,465.41497802734375,961.6886177708045
2.01998233795166,0,46.447025299072266,0.04539988562464714,0.30724355578422546,-0.0276644229888916,0.05008125305175781,0.12409710884094238,0.3064883053302765,-0.010409289970993996,-0.07026282697916031,-0.023084435611963272,-0.12152589112520218,-0.17463867366313934,0.0,0.0,0.3,0.0,0.0,0.0,0.4,0.0,0.0,0.0,0.0,0.5176642300264253,2.600301742553711,459.45196533203125,971.5120850459323
2.0399832725524902,0,46.45293045043945,0.0457112193107605,0.3049744963645935,-0.029660463333129883,0.047342538833618164,0.12169837951660156,0.2930173873901367,-0.02690138854086399,-0.1291380524635315,-0.09169901907444,-0.0777464359998703,-0.12896330654621124,0.0,0.0,0.3,0.0,0.0,0.0,0.4,0.0,0.0,0.0,0.0,0.545564742134768,2.6019392013549805,605.6713256835938,980.7611866702325
2.0599842071533203,0,46.45853805541992,0.0456746481359005,0.3021415174007416,-0.030039072036743164,0.046213388442993164,0.12024831771850586,0.27878978848457336,-0.03919466584920883,-0.11792368441820145,0.04571247100830078,-0.031017521396279335,-0.04514451324939728,0.0,0.0,0.3,0.0,0.0,0.0,0.4,0.0,0.0,0.0,0.0,0.5744596420049354,2.285651683807373,575.0738525390625,991.4129173129447
2.0799851417541504,0,46.46416473388672,0.045288100838661194,0.2995362877845764,-0.027859926223754883,0.04457283020019531,0.12032103538513184,0.28872591257095337,-0.06161060929298401,-0.10780994594097137,0.1092110127210617,-0.08370703458786011,0.018124574795365334,0.0,0.0,0.3,0.0,0.0,0.0,0.4,0.0,0.0,0.0,0.0,0.6042335359027282,2.060447931289673,722.2764282226562,1003.2209208578831
2.0999860763549805,0,46.47016906738281,0.04440278932452202,0.2971196472644806,-0.02458786964416504,0.04179573059082031,0.12149429321289062,0.2975804805755615,-0.08332771807909012,-0.0962868183851242,0.15008863806724548,-0.1287614405155182,0.06840137392282486,0.0,0.0,0.3,0.0,0.0,0.0,0.4,0.0,0.0,0.0,0.0,0.6347303309758422,1.934708833694458,560.2337646484375,1016.195029917825
2.1199870109558105,0,46.4761848449707,0.0432242713868618,0.2950228452682495,-0.021061182022094727,0.03870105743408203,0.12356877326965332,0.28947851061820984,-0.09632622450590134,-0.08154038339853287,0.1423031985759735,-0.11478065699338913,0.11393638700246811,0.0,0.0,0.3,0.0,0.0,0.0,0.4,0.0,0.0,0.0,0.0,0.6657467145581395,1.8295230865478516,530.378662109375,1029.0207311640813
2.1399879455566406,0,46.48204040527344,0.041763003915548325,0.29347383975982666,-0.017702341079711914,0.03688859939575195,0.12642478942871094,0.27743589878082275,-0.11058970540761948,-0.04173087701201439,0.14613573253154755,-0.04766705632209778,0.15525586903095245,0.0,0.0,0.3,0.0,0.0,0.0,0.4,0.0,0.0,0.0,0.0,0.6970255182052905,1.7786160707473755,750.4529418945312,1039.9273650752991
2.1599888801574707,0,46.48768615722656,0.04000736027956009,0.2931463122367859,-0.014365434646606445,0.0368192195892334,0.12978625297546387,0.26554417610168457,-0.12481565028429031,0.015997234731912613,0.13834066689014435,0.01772659830749035,0.17899000644683838,0.0,0.0,0.3,0.0,0.0,0.0,0.4,0.0,0.0,0.0,0.0,0.7,1.7241746187210083,688.0398559570312,1052.7362796484783
2.179989814758301,0,46.49311828613281,0.03803618252277374,0.29402434825897217,-0.010487794876098633,0.03842926025390625,0.13338804244995117,0.24352990090847015,-0.12941743433475494,0.0703318789601326,0.14161065220832825,0.08330485969781876,0.1958140730857849,0.0,0.0,0.3,0.0,0.0,0.0,0.4,0.0,0.0,0.0,0.0,0.7,1.8027642965316772,562.9729614257812,1067.1218798352754
2.199990749359131,0,46.49802780151367,0.03605493903160095,0.2959192991256714,-0.006841897964477539,0.041159629821777344,0.13723278045654297,0.21547096967697144,-0.12563470005989075,0.11170348525047302,0.1034964993596077,0.11417365819215775,0.20999877154827118,0.0,0.0,0.3,0.0,0.0,0.0,0.4,0.0,0.0,0.0,0.0,0.7,1.88943612575531,495.3153076171875,1079.6325926079123
2.219991683959961,0,46.502479553222656,0.034105923026800156,0.29846641421318054,-0.004742860794067383,0.04394674301147461,0.14137506484985352,0.19412226974964142,-0.12101805210113525,0.13616612553596497,0.03419655188918114,0.07847069203853607,0.22702378034591675,0.0,0.0,0.3,0.0,0.0,0.0,0.4,0.0,0.0,0.0,0.0,0.7,1.86185884475708,458.9510192871094,1090.2159698368894
2.239992618560791,0,46.506595611572266,0.03221765160560608,0.3012748956680298,-0.004995584487915039,0.045195579528808594,0.14590811729431152,0.18001911044120789,-0.11735761910676956,0.14362208545207977,-0.060736287385225296,-0.00041809864342212677,0.24653877317905426,0.0,0.0,0.3,0.0,0.0,0.0,0.4,0.0,0.0,0.0,0.0,0.7,1.7906156778335571,422.62103271484375,1099.759079034983
2.259993553161621,0,46.510536193847656,0.030361143872141838,0.30402085185050964,-0.0075266361236572266,0.044562578201293945,0.15098857879638672,0.1720283031463623,-0.1163610965013504,0.13811542093753815,-0.1380813866853714,-0.08599910885095596,0.27030321955680847,0.0,0.0,0.3,0.0,0.0,0.0,0.4,0.0,0.0,0.0,0.0,0.7,1.7559343576431274,408.4824523925781,1108.5752115139883
2.279994487762451,0,46.514427185058594,0.028664465993642807,0.3059968054294586,-0.009713411331176758,0.040960073471069336,0.15727925300598145,0.18943892419338226,-0.10060250014066696,0.05364331603050232,0.05470394343137741,-0.40617871284484863,0.4071422517299652,0.0,0.0,0.3,0.0,0.0,0.0,0.4,0.0,0.0,0.0,0.0,0.7,1.5173512697219849,130.3427276611328,1116.886634740066
2.2999954223632812,0,46.518226623535156,0.027408938854932785,0.3071066737174988,0.001802206039428711,0.03536176681518555,0.16661667823791504,0.16355106234550476,-0.07072456926107407,0.10587102174758911,0.9392939805984497,-0.327131062746048,0.47983211278915405,0.0,0.0,0.3,0.0,0.0,0.0,0.4,0.0,0.0,0.0,0.0,0.7,4.702493190765381,779.6657104492188,1122.2751383338334
2.3199963569641113,0,46.5218391418457,0.026500936597585678,0.3084406852722168,0.015578269958496094,0.02840733528137207,0.1763932704925537,0.17449575662612915,-0.05504274368286133,0.06372851133346558,0.3915436863899231,-0.3003464341163635,0.518697202205658,0.0,0.0,0.3,0.0,0.0,0.0,0.4,0.0,0.0,0.0,0.0,0.7,1.8182897567749023,345.7597351074219,1131.3756479622577
2.3399972915649414,0,46.52566909790039,0.026017246767878532,0.308919221162796,0.02397322654724121,0.022700786590576172,0.18649649620056152,0.1865176260471344,-0.03895952180027962,0.02295706793665886,0.29601362347602844,-0.20650538802146912,0.5289962887763977,0.0,0.0,0.3,0.0,0.0,0.0,0.4,0.0,0.0,0.0,0.0,0.7,1.3671844005584717,354.0999755859375,1142.630428329602
2.3599982261657715,0,46.529579162597656,0.02589482069015503,0.3088092505931854,0.030195236206054688,0.019047975540161133,0.19681477546691895,0.19205692410469055,-0.02770085074007511,-0.0037387069314718246,0.11714300513267517,-0.10554417222738266,0.5408958792686462,0.0,0.0,0.3,0.0,0.0,0.0,0.4,0.0,0.0,0.0,0.0,0.7,0.9170790910720825,366.1042175292969,1149.6293524812688
2.3799991607666016,0,46.53349304199219,0.0260176844894886,0.30836719274520874,0.03138995170593262,0.017549514770507812,0.20772337913513184,0.19209016859531403,-0.01917995512485504,-0.021007124334573746,-0.10959344357252121,0.011680448427796364,0.5715081095695496,0.0,0.0,0.3,0.0,0.0,0.0,0.4,0.0,0.0,0.0,0.0,0.7,0.7305593490600586,365.66925048828125,1156.8317309641395
2.4000000953674316,0,46.53733444213867,0.02633090317249298,0.3077632784843445,0.02620553970336914,0.018552541732788086,0.21971917152404785,0.18936431407928467,-0.011640365235507488,-0.029792435467243195,-0.3417293131351471,0.11047115921974182,0.6187325716018677,0.0,0.0,0.3,0.0,0.0,0.0,0.4,0.0,0.0,0.0,0.0,0.7,1.0052416324615479,368.9305114746094,1164.1498076023606
2.4200010299682617,0,46.54106903076172,0.026801947504281998,0.30718469619750977,0.016486644744873047,0.021343708038330078,0.23273396492004395,0.18605177104473114,-0.0053547886200249195,-0.02801661565899849,-0.4753420948982239,0.1522258222103119,0.656230092048645,0.0,0.0,0.3,0.0,0.0,0.0,0.4,0.0,0.0,0.0,0.0,0.7,1.4086363315582275,364.8165283203125,1171.4961485007632
2.440001964569092,0,46.54469680786133,0.027402326464653015,0.3067534863948822,0.005353212356567383,0.02454400062561035,0.24628090858459473,0.18339495360851288,-0.00022151644225232303,-0.02076096273958683,-0.4875476360321045,0.14341777563095093,0.6712808609008789,0.0,0.0,0.3,0.0,0.0,0.0,0.4,0.0,0.0,0.0,0.0,0.7,1.5073583126068115,358.00396728515625,1178.8339617790086
2.460002899169922,0,46.548274993896484,0.028119664639234543,0.30643346905708313,-0.004899263381958008,0.02751469612121582,0.25999903678894043,0.1818668395280838,0.003989130258560181,-0.017566094174981117,-0.42664834856987,0.11821447312831879,0.6755377054214478,0.0,0.0,0.3,0.0,0.0,0.0,0.4,0.0,0.0,0.0,0.0,0.7,1.3736552000045776,350.1346435546875,1186.062504509381
2.480003833770752,0,46.55183792114258,0.028978224843740463,0.3060376048088074,-0.013144731521606445,0.029840469360351562,0.2737915515899658,0.19117431342601776,0.011118175461888313,-0.024950172752141953,-0.33519667387008667,0.07498472183942795,0.6815329790115356,0.0,0.0,0.3,0.0,0.0,0.0,0.4,0.0,0.0,0.0,0.0,0.7,1.113101840019226,394.89593505859375,1193.144221531246
2.500004768371582,0,46.55567169189453,0.030139174312353134,0.3053297996520996,-0.019275903701782227,0.03122425079345703,0.28777289390563965,0.21009230613708496,0.02042345143854618,-0.03997982293367386,-0.2475394308567047,0.028121132403612137,0.6970219612121582,0.0,0.0,0.3,0.0,0.0,0.0,0.4,0.0,0.0,0.0,0.0,0.6866348954013671,0.8662572503089905,389.5965270996094,1200.5948754704775
2.520005702972412,0,46.559730529785156,0.03149140626192093,0.30402514338493347,-0.022666215896606445,0.031462907791137695,0.29985666275024414,0.22102287411689758,0.012610765174031258,-0.12284229695796967,-0.4792875647544861,-0.2422717660665512,0.5349876880645752,0.0,0.0,0.3,0.0,0.0,0.0,0.4,0.0,0.0,0.0,0.0,0.6204735036877421,1.6629990339279175,75.2385025024414,1208.4401666857127
2.540006637573242,0,46.56331253051758,0.03267737478017807,0.3020293712615967,-0.04541611671447754,0.028507232666015625,0.3083322048187256,0.17580392956733704,0.008109183982014656,-0.027425616979599,-1.544526219367981,-0.28415799140930176,0.38693469762802124,0.0,0.0,0.3,0.0,0.0,0.0,0.4,0.0,0.0,0.0,0.0,0.5474924710218733,10.626845359802246,1115.12060546875,1213.0887341993355
2.5600075721740723,0,46.56696319580078,0.03376849368214607,0.30121099948883057,-0.06812787055969238,0.02329730987548828,0.31571149826049805,0.2100868970155716,-0.009335305541753769,-0.019570354372262955,-0.7687234282493591,-0.24963489174842834,0.3217371702194214,0.0,0.0,0.3,0.0,0.0,0.0,0.4,0.0,0.0,0.0,0.0,0.4686661011852038,4.06716775894165,874.2476196289062,1224.9928815343526
2.5800085067749023,0,46.571563720703125,0.034694597125053406,0.3007259964942932,-0.0816500186920166,0.019145965576171875,0.32193779945373535,0.2482466995716095,-0.03319350630044937,-0.004687285982072353,-0.49852868914604187,-0.18123161792755127,0.26255863904953003,0.0,0.0,0.3,0.0,0.0,0.0,0.4,0.0,0.0,0.0,0.0,0.3851193888386344,2.7194199562072754,803.6893310546875,1244.8874934179264
2.6000094413757324,0,46.57682418823242,0.03551304712891579,0.30063173174858093,-0.09020161628723145,0.016350984573364258,0.3267209529876709,0.2630874514579773,-0.04269915074110031,0.012814263813197613,-0.247573584318161,-0.11945754289627075,0.19248758256435394,0.0,0.0,0.3,0.0,0.0,0.0,0.4,0.0,0.0,0.0,0.0,0.2980888849710876,1.9060769081115723,582.653076171875,1261.6676470253958
2.6200103759765625,0,46.582035064697266,0.036407068371772766,0.3010087311267853,-0.09336304664611816,0.01470041275024414,0.3300747871398926,0.2576846778392792,-0.038370486348867416,0.034207623451948166,-0.015360794961452484,-0.0667547881603241,0.13284431397914886,0.0,0.0,0.3,0.0,0.0,0.0,0.4,0.0,0.0,0.0,0.0,0.20888029580850964,1.4736902713775635,534.137939453125,1275.5317189360437
2.6400113105773926,0,46.58707046508789,0.03743799403309822,0.30195245146751404,-0.09116291999816895,0.01391911506652832,0.3323705196380615,0.25045472383499146,-0.031529318541288376,0.06239325925707817,0.19989429414272308,-0.033460088074207306,0.09205404669046402,0.0,0.0,0.3,0.0,0.0,0.0,0.4,0.0,0.0,0.0,0.0,0.11882533107953719,1.3141967058181763,494.4308166503906,1286.7001509691988
2.6600122451782227,0,46.5919075012207,0.03860805183649063,0.3035917580127716,-0.08422017097473145,0.013706445693969727,0.3338284492492676,0.24359090626239777,-0.025375135242938995,0.09614738821983337,0.36520901322364807,-0.015931440517306328,0.0544184148311615,0.0,0.0,0.3,0.0,0.0,0.0,0.4,0.0,0.0,0.0,0.0,0.029239994781719403,1.366771936416626,457.4523010253906,1296.9863191808406
2.6800131797790527,0,46.5965690612793,0.0398746095597744,0.3059157133102417,-0.07454037666320801,0.014193058013916016,0.3341679573059082,0.24165360629558563,-0.023640094324946404,0.12509006261825562,0.43954798579216003,0.01532502006739378,-0.0017709191888570786,0.0,0.0,0.3,0.0,0.0,0.0,0.4,0.0,0.0,0.0,0.0,-0.05861392136303138,1.3998034000396729,457.8289794921875,1306.5055951729744
2.700014114379883,0,46.6013069152832,0.04117060452699661,0.30872029066085815,-0.06433224678039551,0.015247821807861328,0.3331305980682373,0.24826955795288086,-0.02605057694017887,0.1417989730834961,0.4308294951915741,0.034264713525772095,-0.07011251151561737,0.0,0.0,0.3,0.0,0.0,0.0,0.4,0.0,0.0,0.0,0.0,-0.14356283244271656,1.2658429145812988,431.7651062011719,1315.6588356894724
2.720015048980713,0,46.60623550415039,0.042481016367673874,0.3117004334926605,-0.05513596534729004,0.016492843627929688,0.33063292503356934,0.25750699639320374,-0.028515959158539772,0.14354193210601807,0.3687916696071625,0.054690975695848465,-0.142357736825943,0.0,0.0,0.3,0.0,0.0,0.0,0.4,0.0,0.0,0.0,0.0,-0.2245499389292307,1.0367138385772705,392.0867614746094,1324.5551922540915
2.740015983581543,0,46.61134719848633,0.04381249099969864,0.3145533502101898,-0.047545671463012695,0.018205881118774414,0.3266913890838623,0.268189013004303,-0.029415279626846313,0.13231736421585083,0.29637518525123596,0.08213961869478226,-0.21535296738147736,0.0,0.0,0.3,0.0,0.0,0.0,0.4,0.0,0.0,0.0,0.0,-0.300657817637887,0.8351798057556152,365.4040222167969,1332.794095917169
2.760016918182373,0,46.616737365722656,0.045216962695121765,0.31701481342315674,-0.04190564155578613,0.01996898651123047,0.3213205337524414,0.2827346920967102,-0.027929332107305527,0.11160580813884735,0.2073134481906891,0.08458095788955688,-0.29401201009750366,0.0,0.0,0.3,0.0,0.0,0.0,0.4,0.0,0.0,0.0,0.0,-0.3711247163935615,0.6359228491783142,354.456298828125,1340.3693577298407
2.780017852783203,0,46.622352600097656,0.04669414088129997,0.318371444940567,-0.042983293533325195,0.021114826202392578,0.31575846672058105,0.29606032371520996,-0.021503334864974022,0.012944900430738926,-0.1042635589838028,-0.024039097130298615,-0.19201548397541046,0.0,0.0,0.3,0.0,0.0,0.0,0.4,0.0,0.0,0.0,0.0,-0.4353544604665684,0.8430562019348145,69.55257415771484,1347.5682973313167
2.800018787384033,0,46.627296447753906,0.048081498593091965,0.3199305534362793,-0.04446911811828613,0.02602219581604004,0.31046319007873535,0.22188179194927216,-0.02217273972928524,0.17942799627780914,0.02172844484448433,0.46164876222610474,-0.32116803526878357,0.0,0.0,0.3,0.0,0.0,0.0,0.4,0.0,0.0,0.0,0.0,-0.49292007734371124,1.8691495656967163,1433.4967041015625,1351.8085842006974
2.8200197219848633,0,46.631629943847656,0.04936152696609497,0.3232871890068054,-0.044493913650512695,0.03299736976623535,0.30367183685302734,0.2219277322292328,-0.015600408427417278,0.15299734473228455,0.0858413353562355,0.29121267795562744,-0.30936524271965027,0.0,0.0,0.3,0.0,0.0,0.0,0.4,0.0,0.0,0.0,0.0,-0.5435614472726766,1.522443175315857,313.78204345703125,1366.8397793588417
2.8400206565856934,0,46.635982513427734,0.050735216587781906,0.32584357261657715,-0.04116368293762207,0.03733205795288086,0.29709386825561523,0.22413058578968048,-0.007726744282990694,0.12014465034008026,0.17430195212364197,0.20707273483276367,-0.31648552417755127,0.0,0.0,0.3,0.0,0.0,0.0,0.4,0.0,0.0,0.0,0.0,-0.5871774963162592,1.4391140937805176,322.40740966796875,1384.3133833385116
2.8600215911865234,0,46.640350341796875,0.05218368396162987,0.3278162479400635,-0.03624749183654785,0.04093527793884277,0.29044032096862793,0.22417570650577545,-0.0012578461319208145,0.0966433510184288,0.23204560577869415,0.18791130185127258,-0.3183545470237732,0.0,0.0,0.3,0.0,0.0,0.0,0.4,0.0,0.0,0.0,0.0,-0.623813656821884,1.5370525121688843,337.59124755859375,1390.675575161357
2.8800225257873535,0,46.64468765258789,0.053672563284635544,0.32942885160446167,-0.031002283096313477,0.044586896896362305,0.2839047908782959,0.2237161546945572,0.0028266161680221558,0.0818820595741272,0.22199513018131256,0.1888931393623352,-0.3188779950141907,0.0,0.0,0.3,0.0,0.0,0.0,0.4,0.0,0.0,0.0,0.0,-0.6536455062909836,1.6300472021102905,338.3657531738281,1397.2758701512691
2.9000234603881836,0,46.648990631103516,0.05517672374844551,0.3308657705783844,-0.026465654373168945,0.04833722114562988,0.2772214412689209,0.22332094609737396,0.005206696223467588,0.0755755603313446,0.2284223884344101,0.18419121205806732,-0.3353620767593384,0.0,0.0,0.3,0.0,0.0,0.0,0.4,0.0,0.0,0.0,0.0,-0.6769596345833678,1.6891120672225952,329.9761657714844,1404.0357560335804
2.9200243949890137,0,46.653255462646484,0.05665552616119385,0.33227723836898804,-0.021954774856567383,0.05227541923522949,0.2703893184661865,0.22007714211940765,0.0053458684124052525,0.07498741894960403,0.20275446772575378,0.18448875844478607,-0.3465835154056549,0.0,0.0,0.3,0.0,0.0,0.0,0.4,0.0,0.0,0.0,0.0,-0.6941328599110865,1.7509819269180298,320.9142761230469,1410.7194875394896
2.9400253295898438,0,46.65746307373047,0.058071039617061615,0.3337000906467438,-0.01805424690246582,0.05666065216064453,0.26354098320007324,0.2156623899936676,0.004656481556594372,0.07306601107120514,0.1884782761335373,0.1961461454629898,-0.35045820474624634,0.0,0.0,0.3,0.0,0.0,0.0,0.4,0.0,0.0,0.0,0.0,0.7,6.257066249847412,311.0350036621094,1417.2286961198085
2.960026264190674,0,46.661598205566406,0.0594041533768177,0.335042804479599,-0.014436960220336914,0.061125755310058594,0.2575676441192627,0.21230097115039825,0.005258745979517698,0.06669043749570847,0.15657968819141388,0.17636214196681976,-0.21120202541351318,0.0,0.0,0.3,0.0,0.0,0.0,0.4,0.0,0.0,0.0,0.0,0.7,5.084465026855469,476.55615234375,1423.5484842278208
2.980027198791504,0,46.665714263916016,0.060646623373031616,0.33607950806617737,-0.011756181716918945,0.06491351127624512,0.25609326362609863,0.21300101280212402,0.005821338389068842,0.037124112248420715,0.06855973601341248,0.14529484510421753,-0.003280782140791416,0.0,0.0,0.3,0.0,0.0,0.0,0.4,0.0,0.0,0.0,0.0,0.7,3.5409746170043945,266.5877685546875,1431.4247638295535
3.000028133392334,0,46.669864654541016,0.06180289387702942,0.3361167907714844,-0.010685205459594727,0.06767606735229492,0.25763893127441406,0.21793299913406372,0.0036897019017487764,-0.011457028798758984,0.030586430802941322,0.09990420192480087,0.1178484857082367,0.0,0.0,0.3,0.0,0.0,0.0,0.4,0.0,0.0,0.0,0.0,0.7,2.7892229557037354,261.3221130371094,1438.8565503100006
3.020029067993164,0,46.6741828918457,0.06278572231531143,0.3345877230167389,-0.012242555618286133,0.0677328109741211,0.26053571701049805,0.24040654301643372,-0.00855331588536501,-0.12587368488311768,-0.1391107141971588,-0.12371128797531128,0.09130307286977768,0.0,0.0,0.3,0.0,0.0,0.0,0.4,0.0,0.0,0.0,0.0,0.7,2.7157716751098633,69.16047668457031,1444.1358958184253
3.040030002593994,0,46.678550720214844,0.06344520300626755,0.3323391079902649,-0.012449502944946289,0.0701901912689209,0.26424336433410645,0.20796054601669312,-0.02981722727417946,-0.018575627356767654,0.12090974301099777,0.37703028321266174,0.3180258572101593,0.0,0.0,0.3,0.0,0.0,0.0,0.4,0.0,0.0,0.0,0.0,0.7,2.853079319000244,1178.397705078125,1447.4408761502934
3.060030937194824,0,46.683040618896484,0.0637483224272728,0.3313671946525574,-0.0072367191314697266,0.07604861259460449,0.2709815502166748,0.23137259483337402,-0.04248392581939697,-0.05165543407201767,0.20937520265579224,0.23241034150123596,0.32798007130622864,0.0,0.0,0.3,0.0,0.0,0.0,0.4,0.0,0.0,0.0,0.0,0.7,2.5294203758239746,324.9102783203125,1459.9170409523765
3.0800318717956543,0,46.687957763671875,0.06395479291677475,0.3294958472251892,-0.0019686222076416016,0.07854986190795898,0.2777750492095947,0.25124412775039673,-0.0538061261177063,-0.08486618101596832,0.15249276161193848,0.07806363701820374,0.33292078971862793,0.0,0.0,0.3,0.0,0.0,0.0,0.4,0.0,0.0,0.0,0.0,0.7,2.0812714099884033,342.15533447265625,1474.9508232828055
3.1000328063964844,0,46.69318771362305,0.06407752633094788,0.32700175046920776,0.0014986991882324219,0.0780341625213623,0.2847561836242676,0.2629283666610718,-0.06315407156944275,-0.1060166209936142,0.10281453281641006,-0.03815344721078873,0.3461415767669678,0.0,0.0,0.3,0.0,0.0,0.0,0.4,0.0,0.0,0.0,0.0,0.7,1.7939683198928833,353.7890930175781,1481.6217911307729
3.1200337409973145,0,46.69857406616211,0.06410520523786545,0.32418587803840637,0.003582477569580078,0.07584095001220703,0.2919883728027344,0.26806917786598206,-0.07156336307525635,-0.11665429919958115,0.03324116766452789,-0.10208535939455032,0.3612816333770752,0.0,0.0,0.3,0.0,0.0,0.0,0.4,0.0,0.0,0.0,0.0,0.7,1.5901466608047485,369.1375427246094,1488.581560620795
3.1400346755981445,0,46.70404815673828,0.06403222680091858,0.3213050663471222,0.00400996208190918,0.07305312156677246,0.29944896697998047,0.2695600986480713,-0.0790008082985878,-0.11725760251283646,-0.029741577804088593,-0.12373841553926468,0.3765513002872467,0.0,0.0,0.3,0.0,0.0,0.0,0.4,0.0,0.0,0.0,0.0,0.7,1.4458900690078735,380.0643005371094,1495.8111648021338
3.1600356101989746,0,46.709537506103516,0.06386741995811462,0.3185919225215912,0.0033304691314697266,0.07062816619873047,0.3070676326751709,0.26860272884368896,-0.08512132614850998,-0.10838587582111359,-0.059135645627975464,-0.10327338427305222,0.3891502320766449,0.0,0.0,0.3,0.0,0.0,0.0,0.4,0.0,0.0,0.0,0.0,0.7,1.3509962558746338,392.88519287109375,1503.3035333370833
