Timestamp,ActionMode,px,py,pz,roll,pitch,yaw,vx,vy,vz,wx,wy,wz,px_ref,py_ref,pz_ref,roll_ref,pitch_ref,yaw_ref,vx_ref,vy_ref,vz_ref,wx_ref,wy_ref,wz_ref,lyapunov_energy,motor_power,motor_energy_consumption
0.0,1,46.0,-3.431534136705272e-12,0.29996082186698914,0.0,0.0,0.0,1.2667268622923444e-10,6.851382655659322e-11,-0.019620005041360855,-4.1574604869865084e-10,1.7079390124408178e-09,-4.598844915992828e-10,0.0,0.0,0.3,0.0,0.0,0.0,0.4,0.0,0.0,0.0,0.0,0.0747867651027545,1.803350567817688,0.0,0.0
0.020000001415610313,1,46.000179290771484,8.095570592558943e-06,0.2978869378566742,-0.00019669532775878906,-0.0006506443023681641,9.608268737792969e-05,0.026065394282341003,0.0027937099803239107,-0.14975717663764954,-0.05875048041343689,-0.1920592486858368,0.02119385078549385,0.0,0.0,0.3,0.0,0.0,0.0,0.4,0.0,0.0,0.0,0.0,0.07701943924969945,1.8324731588363647,390.0894775390625,0.0
0.04000000283122063,1,46.00099563598633,1.8280637959833257e-05,0.2947560250759125,-0.004247903823852539,-0.0009605884552001953,0.0011138916015625,0.047454990446567535,-0.003835477167740464,-0.13565896451473236,-0.18797995150089264,0.09459630399942398,0.05263351649045944,0.0,0.0,0.3,0.0,0.0,0.0,0.4,0.0,0.0,0.0,0.0,0.07947964084883277,1.6523736715316772,1006.8599243164062,3.900895051497969
0.06000000610947609,1,46.002281188964844,-0.0002055124205071479,0.292695015668869,-0.005948305130004883,0.0014965534210205078,0.0024864673614501953,0.0759112611413002,-0.012577741406857967,-0.07416795939207077,0.017666993662714958,0.1191239207983017,0.06122567132115364,0.0,0.0,0.3,0.0,0.0,0.0,0.4,0.0,0.0,0.0,0.0,0.08207851511501758,1.2688370943069458,962.3623657226562,17.870390058820647
0.07999997586011887,1,46.00416946411133,-0.0005710319965146482,0.29175397753715515,-0.00446629524230957,0.0028319358825683594,0.00374603271484375,0.10606949031352997,-0.022108323872089386,-0.025531021878123283,0.061636168509721756,0.05952963978052139,0.027087993919849396,0.0,0.0,0.3,0.0,0.0,0.0,0.4,0.0,0.0,0.0,0.0,0.08481227867659578,1.0260913372039795,814.5286254882812,37.562616187018136
0.09999994188547134,1,46.006614685058594,-0.001139046042226255,0.2915725111961365,-0.0026285648345947266,0.0031070709228515625,0.0038459300994873047,0.12907642126083374,-0.03411466255784035,0.007250548340380192,0.07935281097888947,0.025445081293582916,-0.029392246156930923,0.0,0.0,0.3,0.0,0.0,0.0,0.4,0.0,0.0,0.0,0.0,0.08768676518021737,0.9205915927886963,698.6842041015625,55.33149922422234
0.11999990791082382,1,46.0094108581543,-0.0019139862852171063,0.2919432520866394,-0.0007631778717041016,0.0032181739807128906,0.0029685497283935547,0.14664529263973236,-0.04430641606450081,0.030162325128912926,0.07095544040203094,0.024883827194571495,-0.06544440239667892,0.0,0.0,0.3,0.0,0.0,0.0,0.4,0.0,0.0,0.0,0.0,0.09071048066490736,0.8668351173400879,600.708984375,70.46360181468452
0.13999992609024048,1,46.01249313354492,-0.002856065519154072,0.29275837540626526,0.0008275508880615234,0.0039293766021728516,0.0015528202056884766,0.15888842940330505,-0.051544807851314545,0.04830271750688553,0.06652536988258362,0.05779140442609787,-0.07935380190610886,0.0,0.0,0.3,0.0,0.0,0.0,0.4,0.0,0.0,0.0,0.0,0.09389334044963825,0.8429504036903381,518.69970703125,83.45751162623736
0.15999996662139893,1,46.01577377319336,-0.003913735970854759,0.2939729392528534,0.002231597900390625,0.0056989192962646484,-9.846687316894531e-05,0.16801975667476654,-0.05570540204644203,0.06484635174274445,0.058129359036684036,0.09691290557384491,-0.08130261301994324,0.0,0.0,0.3,0.0,0.0,0.0,0.4,0.0,0.0,0.0,0.0,0.09724639083413232,0.8304606676101685,462.90789794921875,94.65160871539837
0.18000000715255737,1,46.01921844482422,-0.005029714200645685,0.29554077982902527,0.0037441253662109375,0.008525609970092773,-0.0018131732940673828,0.1750149428844452,-0.057096246629953384,0.07831119000911713,0.05826478451490402,0.13517260551452637,-0.07809460163116455,0.0,0.0,0.3,0.0,0.0,0.0,0.4,0.0,0.0,0.0,0.0,0.10078178287514841,0.8372552990913391,414.1573791503906,104.46770465804974
0.20000004768371582,1,46.02277755737305,-0.006160619668662548,0.2973063588142395,0.005230426788330078,0.0120849609375,-0.0034782886505126953,0.1812421679496765,-0.05651251599192619,0.08259495347738266,0.046711280941963196,0.15468668937683105,-0.07048938423395157,0.0,0.0,0.3,0.0,0.0,0.0,0.4,0.0,0.0,0.0,0.0,0.10451283356483886,0.8380517959594727,373.99359130859375,113.23837520328169
0.22000008821487427,1,46.0264892578125,-0.007271678652614355,0.29901427030563354,0.005925416946411133,0.015694141387939453,-0.004996538162231445,0.1881411224603653,-0.054415035992860794,0.07507196813821793,0.003169385250657797,0.13930626213550568,-0.06022224202752113,0.0,0.0,0.3,0.0,0.0,0.0,0.4,0.0,0.0,0.0,0.0,0.10845412860651871,0.7812888622283936,350.69305419921875,121.11990088020747
0.24000012874603271,1,46.03034210205078,-0.00833691656589508,0.3004065454006195,0.0053899288177490234,0.01861572265625,-0.006293535232543945,0.19703416526317596,-0.051598433405160904,0.057220958173274994,-0.03705858811736107,0.10278846323490143,-0.0496363639831543,0.0,0.0,0.3,0.0,0.0,0.0,0.4,0.0,0.0,0.0,0.0,0.11262165281037767,0.7018998861312866,347.38677978515625,128.36678202148022
0.26000016927719116,1,46.03443145751953,-0.009348773397505283,0.3012966811656952,0.0037508010864257812,0.020369529724121094,-0.007318735122680664,0.20967043936252594,-0.04875878244638443,0.033770572394132614,-0.07648156583309174,0.04991453140974045,-0.04093535989522934,0.0,0.0,0.3,0.0,0.0,0.0,0.4,0.0,0.0,0.0,0.0,0.11703294443301897,0.6153149604797363,360.4075012207031,135.34759450831615
0.2800002098083496,1,46.038726806640625,-0.01025800034403801,0.30123811960220337,0.0011408329010009766,0.020497798919677734,-0.0068743228912353516,0.21975623071193695,-0.039866700768470764,-0.08430841565132141,-0.21641668677330017,-0.06319795548915863,0.14981019496917725,0.0,0.0,0.3,0.0,0.0,0.0,0.4,0.0,0.0,0.0,0.0,0.12170727378235037,0.6219325661659241,78.41321563720703,142.42555166223582
0.30000025033950806,1,46.04273986816406,-0.010780836455523968,0.30034610629081726,-0.003789186477661133,0.025863170623779297,-0.004717111587524414,0.1857985407114029,-0.011010547168552876,0.0030863359570503235,-0.26359474658966064,0.5264020562171936,0.060320839285850525,0.0,0.0,0.3,0.0,0.0,0.0,0.4,0.0,0.0,0.0,0.0,0.12666584834217975,2.0712523460388184,933.6577758789062,146.81376772377092
0.3200002908706665,1,46.04662322998047,-0.010818776674568653,0.3006286025047302,-0.008246660232543945,0.034505367279052734,-0.003263711929321289,0.19768857955932617,0.005161159671843052,0.01715690642595291,-0.14413607120513916,0.30851036310195923,0.11656671017408371,0.0,0.0,0.3,0.0,0.0,0.0,0.4,0.0,0.0,0.0,0.0,0.13193204790153049,1.2003263235092163,571.0037841796875,156.9344981491369
0.34000033140182495,1,46.05073928833008,-0.010644860565662384,0.30084893107414246,-0.00810551643371582,0.037962913513183594,-0.0005304813385009766,0.20825432240962982,0.016255071386694908,0.01955314725637436,0.03466392308473587,0.11082260310649872,0.1671280860900879,0.0,0.0,0.3,0.0,0.0,0.0,0.4,0.0,0.0,0.0,0.0,0.13753169420171313,0.7178218364715576,516.540771484375,171.9811442425609
0.3600003719329834,1,46.05500793457031,-0.010279841721057892,0.30106425285339355,-0.0046160221099853516,0.038875579833984375,0.0029726028442382812,0.21484258770942688,0.02549261599779129,0.02254527248442173,0.11464902013540268,0.026982612907886505,0.19367067515850067,0.0,0.0,0.3,0.0,0.0,0.0,0.4,0.0,0.0,0.0,0.0,0.14349336065254353,0.6606923341751099,482.2005310058594,182.85661183892188
0.38000041246414185,1,46.05939483642578,-0.009747807867825031,0.3013700842857361,-0.0008728504180908203,0.0390467643737793,0.006911277770996094,0.21978646516799927,0.0326126404106617,0.027611080557107925,0.08987471461296082,0.005655038636177778,0.20855462551116943,0.0,0.0,0.3,0.0,0.0,0.0,0.4,0.0,0.0,0.0,0.0,0.14984872883028472,0.618120551109314,456.80731201171875,192.8440451038952
0.4000004529953003,1,46.063873291015625,-0.009082844480872154,0.3018014430999756,0.0005636215209960938,0.0389101505279541,0.011243820190429688,0.22493980824947357,0.03792263939976692,0.032595522701740265,-0.009801858104765415,-0.013720113784074783,0.22284004092216492,0.0,0.0,0.3,0.0,0.0,0.0,0.4,0.0,0.0,0.0,0.0,0.1566329998324991,0.5606713891029358,432.3721008300781,202.23414256360883
0.42000049352645874,1,46.068397521972656,-0.008310027420520782,0.30241596698760986,-0.0007717609405517578,0.038810014724731445,0.01596689224243164,0.22627396881580353,0.041764091700315475,0.04162842780351639,-0.09814900904893875,-0.013825847767293453,0.23464448750019073,0.0,0.0,0.3,0.0,0.0,0.0,0.4,0.0,0.0,0.0,0.0,0.1638853702010781,0.591494619846344,403.3741149902344,211.12595471176263
0.4400005340576172,1,46.07292556762695,-0.0074455225840210915,0.30324476957321167,-0.003797769546508789,0.039052724838256836,0.02094888687133789,0.224713996052742,0.044767651706933975,0.049302905797958374,-0.1393587440252304,-0.0047070058062672615,0.24097321927547455,0.0,0.0,0.3,0.0,0.0,0.0,0.4,0.0,0.0,0.0,0.0,0.1716495841128689,0.647574245929718,371.2199401855469,219.4834338068469
0.46000057458877563,1,46.077388763427734,-0.006503765471279621,0.30416372418403625,-0.007089853286743164,0.03941082954406738,0.026050090789794922,0.22320784628391266,0.04707198590040207,0.04920574277639389,-0.1281065046787262,-0.012253664433956146,0.24303489923477173,0.0,0.0,0.3,0.0,0.0,0.0,0.4,0.0,0.0,0.0,0.0,0.17997457597137595,0.6510880589485168,348.0850830078125,227.2293900562019
0.4800006151199341,1,46.081825256347656,-0.00550089031457901,0.3049509823322296,-0.009467363357543945,0.03940987586975098,0.03119492530822754,0.22343122959136963,0.04889747127890587,0.038919415324926376,-0.08434998989105225,-0.03222420811653137,0.2449466735124588,0.0,0.0,0.3,0.0,0.0,0.0,0.4,0.0,0.0,0.0,0.0,0.18891522052949516,0.6114345192909241,336.240966796875,234.42245486526843
0.5000006556510925,1,46.08628845214844,-0.004445582162588835,0.3053952753543854,-0.010481119155883789,0.038686513900756836,0.036374568939208984,0.2273952215909958,0.05064640939235687,0.020916778594255447,-0.02961640991270542,-0.06523602455854416,0.25138965249061584,0.0,0.0,0.3,0.0,0.0,0.0,0.4,0.0,0.0,0.0,0.0,0.1985332113797167,0.5583050847053528,341.7630615234375,241.2657292315791
0.5200003981590271,1,46.0908203125,-0.003464460140094161,0.30510568618774414,-0.012575387954711914,0.03684186935424805,0.04002213478088379,0.2413550466299057,0.03774302825331688,-0.05438642576336861,-0.16565832495689392,-0.1811785101890564,0.06419603526592255,0.0,0.0,0.3,0.0,0.0,0.0,0.4,0.0,0.0,0.0,0.0,0.20889809325342137,0.7452953457832336,101.3705825805664,248.04578325492656
0.5400001406669617,1,46.094932556152344,-0.0028702549170702696,0.30536407232284546,-0.014446496963500977,0.04028153419494629,0.042401790618896484,0.18123458325862885,0.010687055066227913,0.12741787731647491,0.08336494117975235,0.4616948664188385,0.1939283311367035,0.0,0.0,0.3,0.0,0.0,0.0,0.4,0.0,0.0,0.0,0.0,0.22008847931793862,1.8688760995864868,1864.84619140625,252.47706264426796
0.5599998831748962,1,46.09885787963867,-0.002673607086762786,0.3076404333114624,-0.010550737380981445,0.047368764877319336,0.04571247100830078,0.20005786418914795,0.00020204635802656412,0.09492786973714828,0.14758528769016266,0.21438243985176086,0.12579959630966187,0.0,0.0,0.3,0.0,0.0,0.0,0.4,0.0,0.0,0.0,0.0,0.2321934918637939,1.2104055881500244,323.2319030761719,272.138977241527
0.5799996256828308,1,46.10317611694336,-0.002581457607448101,0.3086819350719452,-0.00849461555480957,0.048601388931274414,0.0477747917175293,0.21682314574718475,-0.00682799844071269,0.04471258446574211,0.053128648549318314,0.004852696321904659,0.0898139700293541,0.0,0.0,0.3,0.0,0.0,0.0,0.4,0.0,0.0,0.0,0.0,0.24531447384493263,0.8282099366188049,327.41497802734375,294.0194764799773
0.5999993681907654,1,46.10768508911133,-0.002618554513901472,0.3088410794734955,-0.00863957405090332,0.04712057113647461,0.0496671199798584,0.22575899958610535,-0.01405368559062481,0.012751392088830471,0.007573278620839119,-0.07755637913942337,0.0968162938952446,0.0,0.0,0.3,0.0,0.0,0.0,0.4,0.0,0.0,0.0,0.0,0.2595670302076313,0.7435116767883301,364.43487548828125,300.5258615228078
0.6199991106987,1,46.11229705810547,-0.002797165885567665,0.30858978629112244,-0.009063959121704102,0.04510617256164551,0.0519413948059082,0.23045490682125092,-0.02097434177994728,-0.001138606108725071,0.014301800169050694,-0.08637648075819016,0.12109164148569107,0.0,0.0,0.3,0.0,0.0,0.0,0.4,0.0,0.0,0.0,0.0,0.27508347252345083,0.6935977339744568,395.2337341308594,307.4442709850402
0.6399988532066345,1,46.1169548034668,-0.0031036396976560354,0.3082631230354309,-0.008392572402954102,0.0433659553527832,0.05472111701965332,0.23346631228923798,-0.02701014280319214,-0.002430950291454792,0.06778384000062943,-0.07258132845163345,0.14801988005638123,0.0,0.0,0.3,0.0,0.0,0.0,0.4,0.0,0.0,0.0,0.0,0.2920157590571303,0.6654555797576904,402.2984619140625,315.04085927691193
0.6599985957145691,1,46.12165069580078,-0.0035146730951964855,0.30808618664741516,-0.005917787551879883,0.0420989990234375,0.05791020393371582,0.23489397764205933,-0.032051704823970795,0.0055960663594305515,0.12553715705871582,-0.06006663292646408,0.17013755440711975,0.0,0.0,0.3,0.0,0.0,0.0,0.4,0.0,0.0,0.0,0.0,0.31053904628316564,0.6832218170166016,395.5754089355469,323.01607855825495
0.6799983382225037,1,46.12636184692383,-0.004006532486528158,0.30816489458084106,-0.0023920536041259766,0.04155230522155762,0.06126761436462402,0.2328762412071228,-0.03602612018585205,0.015802418813109398,0.14411970973014832,-0.031643837690353394,0.18043571710586548,0.0,0.0,0.3,0.0,0.0,0.0,0.4,0.0,0.0,0.0,0.0,0.33085599865358784,0.7272900342941284,373.1603088378906,330.99471454365556
0.6999980807304382,1,46.131004333496094,-0.0045561413280665874,0.3084428310394287,0.0010199546813964844,0.04160356521606445,0.0647125244140625,0.230304554104805,-0.038857586681842804,0.02135772444307804,0.11654055118560791,-0.018023820593953133,0.18907780945301056,0.0,0.0,0.3,0.0,0.0,0.0,0.4,0.0,0.0,0.0,0.0,0.3532020433028519,0.7401758432388306,354.2364501953125,338.68197274971607
0.7199978232383728,1,46.13561248779297,-0.0051383995451033115,0.3087262809276581,0.00339508056640625,0.04163980484008789,0.06833982467651367,0.22983217239379883,-0.040710221976041794,0.016473673284053802,0.06837370991706848,-0.0290207639336586,0.20190192759037018,0.0,0.0,0.3,0.0,0.0,0.0,0.4,0.0,0.0,0.0,0.0,0.3778518082865902,0.7226197719573975,340.54443359375,345.95584669060116
0.7399975657463074,1,46.1402702331543,-0.0057350508868694305,0.30879878997802734,0.0044596195220947266,0.041196584701538086,0.07233858108520508,0.23212577402591705,-0.04197414591908455,0.004199782852083445,0.018321797251701355,-0.04988500848412514,0.22252985835075378,0.0,0.0,0.3,0.0,0.0,0.0,0.4,0.0,0.0,0.0,0.0,0.40512705082938744,0.6932111978530884,341.2305603027344,352.9035660782094
0.7599973082542419,1,46.14501953125,-0.006333855912089348,0.3085134029388428,0.004337310791015625,0.03992962837219238,0.07689714431762695,0.2390664964914322,-0.04314776510000229,-0.012538555078208447,-0.025570150464773178,-0.08523303270339966,0.24733105301856995,0.0,0.0,0.3,0.0,0.0,0.0,0.4,0.0,0.0,0.0,0.0,0.43540647120354664,0.6576435565948486,356.2060241699219,359.72122824134857
0.7799970507621765,1,46.14985656738281,-0.006881001405417919,0.30755576491355896,0.0018007755279541016,0.038025617599487305,0.08323884010314941,0.2426580935716629,-0.03822352737188339,-0.10537338256835938,-0.6399016976356506,-0.031286247074604034,0.44640904664993286,0.0,0.0,0.3,0.0,0.0,0.0,0.4,0.0,0.0,0.0,0.0,0.46913792540730165,1.918957233428955,515.9437866210938,366.6955042938818
0.7999967932701111,1,46.15443801879883,-0.007193590514361858,0.305745393037796,-0.003618478775024414,0.0385136604309082,0.09214568138122559,0.21735501289367676,-0.021681878715753555,-0.05327129364013672,-0.03210735321044922,0.054826218634843826,0.441760778427124,0.0,0.0,0.3,0.0,0.0,0.0,0.4,0.0,0.0,0.0,0.0,0.5068537053278931,0.6571931838989258,693.1827392578125,375.4168901159639
0.8199965357780457,1,46.15879821777344,-0.007204377092421055,0.30470386147499084,-0.0023806095123291016,0.038475990295410156,0.10128545761108398,0.21992971003055573,-0.006074686534702778,-0.031388286501169205,-0.054935161024332047,-0.021093392744660378,0.48719242215156555,0.0,0.0,0.3,0.0,0.0,0.0,0.4,0.0,0.0,0.0,0.0,0.5491897613323482,0.5858420729637146,624.3318481445312,387.5079997045097
0.8399962782859802,1,46.16325378417969,-0.006894018035382032,0.30389055609703064,-0.0012161731719970703,0.03688240051269531,0.11147236824035645,0.22658474743366241,0.008199216797947884,-0.02177516371011734,0.03018929809331894,-0.07546843588352203,0.5403637290000916,0.0,0.0,0.3,0.0,0.0,0.0,0.4,0.0,0.0,0.0,0.0,0.5969100160724071,0.5323837399482727,575.5681762695312,400.68297595375697
0.8599960207939148,1,46.16781234741211,-0.0062907375395298,0.30327099561691284,0.0012276172637939453,0.03504300117492676,0.12265872955322266,0.22995160520076752,0.019500719383358955,-0.012583475559949875,0.02594967931509018,-0.06287967413663864,0.5878863334655762,0.0,0.0,0.3,0.0,0.0,0.0,0.4,0.0,0.0,0.0,0.0,0.6509372814902826,0.5045222640037537,538.7071533203125,412.6818217155298
0.8799957633018494,1,46.17236328125,-0.005461725406348705,0.30291885137557983,0.0026352405548095703,0.0338740348815918,0.13484930992126465,0.23153819143772125,0.027184007689356804,-0.0006219050846993923,-0.029217466711997986,-0.03257955610752106,0.6371294856071472,0.0,0.0,0.3,0.0,0.0,0.0,0.4,0.0,0.0,0.0,0.0,0.7,0.4807245135307312,506.4234619140625,423.8244315529002
0.8999955058097839,1,46.1768798828125,-0.004476454574614763,0.3028997778892517,0.0016584396362304688,0.03333640098571777,0.14823079109191895,0.23224952816963196,0.03198089450597763,0.014452386647462845,-0.11617541313171387,-0.01215071976184845,0.6929721236228943,0.0,0.0,0.3,0.0,0.0,0.0,0.4,0.0,0.0,0.0,0.0,0.7,0.4907301366329193,470.7314453125,434.27560314882356
0.9199952483177185,1,46.1813850402832,-0.0033750440925359726,0.30328845977783203,-0.0015614032745361328,0.03357386589050293,0.16274619102478027,0.2305605560541153,0.0349215567111969,0.032501332461833954,-0.18052774667739868,0.0166619885712862,0.7359374165534973,0.0,0.0,0.3,0.0,0.0,0.0,0.4,0.0,0.0,0.0,0.0,0.7,0.5842804908752441,422.67041015625,444.04702641627154
0.9399949908256531,1,46.18583297729492,-0.0021797085646539927,0.30406907200813293,-0.005772829055786133,0.03459453582763672,0.17787599563598633,0.22776900231838226,0.036226723343133926,0.04750216752290726,-0.19008083641529083,0.035857077687978745,0.7526796460151672,0.0,0.0,0.3,0.0,0.0,0.0,0.4,0.0,0.0,0.0,0.0,0.7,0.6532652378082275,377.2830505371094,452.9809299490145
0.9599947333335876,1,46.190208435058594,-0.0009173071011900902,0.305029034614563,-0.009413957595825195,0.03582954406738281,0.19321250915527344,0.22617082297801971,0.035944193601608276,0.04982364922761917,-0.14536204934120178,0.028393177315592766,0.7564337253570557,0.0,0.0,0.3,0.0,0.0,0.0,0.4,0.0,0.0,0.0,0.0,0.7,0.6338948011398315,339.7919006347656,460.9803615651137
0.9799944758415222,1,46.1945686340332,0.00038887374103069305,0.3058520555496216,-0.01135563850402832,0.03673362731933594,0.20860934257507324,0.22719316184520721,0.03468364477157593,0.038090553134679794,-0.06996078789234161,0.006490414962172508,0.7595028877258301,0.0,0.0,0.3,0.0,0.0,0.0,0.4,0.0,0.0,0.0,0.0,0.7,0.5775373578071594,326.6843566894531,468.1510187562773
0.9999942183494568,1,46.1989860534668,0.001732508186250925,0.30627721548080444,-0.011337518692016602,0.03690528869628906,0.22412729263305664,0.23255865275859833,0.03297344222664833,0.01734565570950508,0.0033716149628162384,-0.02654753252863884,0.7716767191886902,0.0,0.0,0.3,0.0,0.0,0.0,0.4,0.0,0.0,0.0,0.0,0.7,0.5341804027557373,334.47625732421875,474.8156955233455
1.0199940204620361,1,46.20353317260742,0.0031308280304074287,0.3061783015727997,-0.009744882583618164,0.036031246185302734,0.23992180824279785,0.24311764538288116,0.03110905922949314,-0.004920152015984058,0.055239222943782806,-0.06663493812084198,0.7934436798095703,0.0,0.0,0.3,0.0,0.0,0.0,0.4,0.0,0.0,0.0,0.0,0.7,0.5065015554428101,351.2676086425781,481.42721654167616
1.0399937629699707,1,46.208160400390625,0.0044430214911699295,0.30519020557403564,-0.01031804084777832,0.0346531867980957,0.25414109230041504,0.24085023999214172,0.013917663134634495,-0.1032545194029808,0.03053806722164154,-0.014583287760615349,0.5909804701805115,0.0,0.0,0.3,0.0,0.0,0.0,0.4,0.0,0.0,0.0,0.0,0.7,0.5651703476905823,579.793701171875,488.2845873513017
1.0599935054779053,1,46.21271896362305,0.005434245336800814,0.30298978090286255,-0.009995698928833008,0.03528451919555664,0.26506972312927246,0.23478668928146362,-0.0069455550983548164,-0.08642411231994629,0.03835112601518631,0.05751442164182663,0.5278052687644958,0.0,0.0,0.3,0.0,0.0,0.0,0.4,0.0,0.0,0.0,0.0,0.7,0.7061163783073425,677.41357421875,497.5950805789964
1.0799932479858398,1,46.21739959716797,0.006137763150036335,0.3013262152671814,-0.008865594863891602,0.03547549247741699,0.2754824161529541,0.23730510473251343,-0.02381763979792595,-0.05688554421067238,0.049043409526348114,-0.016347741708159447,0.5114929676055908,0.0,0.0,0.3,0.0,0.0,0.0,0.4,0.0,0.0,0.0,0.0,0.7,0.6585451364517212,656.880126953125,510.1669914724536
1.0999929904937744,1,46.22218322753906,0.006619180552661419,0.3001715838909149,-0.007753610610961914,0.03407788276672363,0.2856473922729492,0.2388070523738861,-0.0386526957154274,-0.033645324409008026,0.04160428047180176,-0.07923232764005661,0.5037135481834412,0.0,0.0,0.3,0.0,0.0,0.0,0.4,0.0,0.0,0.0,0.0,0.7,0.630268394947052,594.9805908203125,523.5097566991519
1.119992733001709,1,46.22703552246094,0.0068834745325148106,0.2994532287120819,-0.0067827701568603516,0.032154083251953125,0.2958078384399414,0.23666128516197205,-0.05190197750926018,-0.014067815616726875,0.050841376185417175,-0.08406361937522888,0.513675332069397,0.0,0.0,0.3,0.0,0.0,0.0,0.4,0.0,0.0,0.0,0.0,0.7,0.6064693927764893,546.5820922851562,536.0282027047854
1.1399924755096436,1,46.23194885253906,0.006939168553799391,0.2992015480995178,-0.005200624465942383,0.030554533004760742,0.3064451217651367,0.23284663259983063,-0.06323907524347305,0.007126315031200647,0.08649064600467682,-0.06948661059141159,0.5451664328575134,0.0,0.0,0.3,0.0,0.0,0.0,0.4,0.0,0.0,0.0,0.0,0.7,0.5804715752601624,500.99066162109375,547.4436825641735
1.1599922180175781,1,46.236812591552734,0.006803025957196951,0.29951056838035583,-0.0022127628326416016,0.029610633850097656,0.31779980659484863,0.22730928659439087,-0.07340199500322342,0.03305083140730858,0.13765296339988708,-0.04253646731376648,0.5820717811584473,0.0,0.0,0.3,0.0,0.0,0.0,0.4,0.0,0.0,0.0,0.0,0.7,0.6041753888130188,457.4553527832031,557.9192752324
1.1799919605255127,1,46.241600036621094,0.006486738566309214,0.30035439133644104,0.0018970966339111328,0.029599428176879883,0.329392671585083,0.21846970915794373,-0.08237756788730621,0.053884584456682205,0.15343964099884033,-0.006917419843375683,0.5876589417457581,0.0,0.0,0.3,0.0,0.0,0.0,0.4,0.0,0.0,0.0,0.0,0.7,0.6762410402297974,411.6788024902344,567.503611980321
1.1999917030334473,1,46.24628829956055,0.006005055271089077,0.30150166153907776,0.006039142608642578,0.030222177505493164,0.34078431129455566,0.20978684723377228,-0.0906851664185524,0.06119135767221451,0.1355590671300888,0.011776278726756573,0.5777148008346558,0.0,0.0,0.3,0.0,0.0,0.0,0.4,0.0,0.0,0.0,0.0,0.7,0.732221782207489,369.0617370605469,576.194841635481
1.2199914455413818,1,46.25088882446289,0.005377757828682661,0.30264848470687866,0.009291887283325195,0.03080463409423828,0.35196518898010254,0.20290401577949524,-0.09822934120893478,0.055478841066360474,0.08905599266290665,-0.0028394185937941074,0.5717226266860962,0.0,0.0,0.3,0.0,0.0,0.0,0.4,0.0,0.0,0.0,0.0,0.7,0.7334476709365845,348.1396179199219,584.0021465137418
1.2399911880493164,1,46.25545120239258,0.004626698326319456,0.3035295307636261,0.011128664016723633,0.03065180778503418,0.3631556034088135,0.19906245172023773,-0.10581249743700027,0.03964874893426895,0.032221294939517975,-0.04140431061387062,0.5749595761299133,0.0,0.0,0.3,0.0,0.0,0.0,0.4,0.0,0.0,0.0,0.0,0.7,0.706221342086792,347.4175109863281,591.1740677267173
1.259990930557251,1,46.260032653808594,0.0037661800161004066,0.303969144821167,0.01154327392578125,0.029352426528930664,0.37462544441223145,0.1986289918422699,-0.11413894593715668,0.019113849848508835,-0.014346115291118622,-0.08839797228574753,0.5876255035400391,0.0,0.0,0.3,0.0,0.0,0.0,0.4,0.0,0.0,0.0,0.0,0.7,0.6812801957130432,363.88055419921875,598.129549465559
1.2799906730651855,1,46.26450729370117,0.0028784368187189102,0.3037570118904114,0.010347127914428711,0.027520179748535156,0.3870413303375244,0.18976737558841705,-0.1054285317659378,-0.022828368470072746,-0.20915846526622772,-0.04778898507356644,0.6531386971473694,0.0,0.0,0.3,0.0,0.0,0.0,0.4,0.0,0.0,0.0,0.0,0.7,0.7567616105079651,476.74066162109375,605.2424385406105
1.2999904155731201,1,46.268760681152344,0.002188296988606453,0.3036198019981384,0.019884347915649414,0.023308992385864258,0.4013173580169678,0.17523398995399475,-0.08685269206762314,0.06162334978580475,0.8726545572280884,-0.28118717670440674,0.7068769335746765,0.0,0.0,0.3,0.0,0.0,0.0,0.4,0.0,0.0,0.0,0.0,0.7,4.058349609375,1129.022705078125,613.648542472167
1.3199901580810547,1,46.2728271484375,0.0019511403515934944,0.3044411540031433,0.032265663146972656,0.01714777946472168,0.41545534133911133,0.1883312314748764,-0.06334971636533737,0.04561493173241615,0.19175642728805542,-0.2233273684978485,0.7354181408882141,0.0,0.0,0.3,0.0,0.0,0.0,0.4,0.0,0.0,0.0,0.0,0.7,1.1061383485794067,503.6112060546875,629.7059694034963
1.3399899005889893,1,46.27699661254883,0.002392713911831379,0.3047446012496948,0.03539395332336426,0.01348733901977539,0.42987704277038574,0.20347462594509125,-0.038300637155771255,0.016696956008672714,0.10020854324102402,-0.06916793435811996,0.7346753478050232,0.0,0.0,0.3,0.0,0.0,0.0,0.4,0.0,0.0,0.0,0.0,0.7,0.746478796005249,470.4789733886719,646.0320983196855
1.3599896430969238,1,46.28115463256836,0.003401092253625393,0.30471640825271606,0.036806583404541016,0.012600898742675781,0.44429850578308105,0.21170717477798462,-0.021064260974526405,0.0024682926014065742,-0.08548221737146378,0.03871357813477516,0.7328139543533325,0.0,0.0,0.3,0.0,0.0,0.0,0.4,0.0,0.0,0.0,0.0,0.7,0.5939940810203552,479.1669006347656,655.772874703873
1.3799893856048584,1,46.2852783203125,0.004776673391461372,0.3046634793281555,0.03372669219970703,0.013533830642700195,0.4589252471923828,0.21489877998828888,-0.009155008010566235,0.003286473685875535,-0.2533114552497864,0.10628874599933624,0.7404345273971558,0.0,0.0,0.3,0.0,0.0,0.0,0.4,0.0,0.0,0.0,0.0,0.7,0.7165383100509644,477.4547424316406,665.2692111809686
1.399989128112793,1,46.289306640625,0.006395431235432625,0.30477333068847656,0.026584148406982422,0.015404462814331055,0.4741065502166748,0.2157173603773117,-0.00023618580598849803,0.010591249912977219,-0.3702249526977539,0.12304163724184036,0.7660906314849854,0.0,0.0,0.3,0.0,0.0,0.0,0.4,0.0,0.0,0.0,0.0,0.7,0.9321019649505615,450.9496154785156,674.8353044503913
1.4199888706207275,1,46.29325485229492,0.008201551623642445,0.30516740679740906,0.01767253875732422,0.017736434936523438,0.4898068904876709,0.21458549797534943,0.007330578751862049,0.02511128969490528,-0.38684016466140747,0.12474063038825989,0.7797898650169373,0.0,0.0,0.3,0.0,0.0,0.0,0.4,0.0,0.0,0.0,0.0,0.7,0.9949542284011841,415.16021728515625,684.119228501115
1.439988613128662,1,46.29705047607422,0.01017096359282732,0.3058762550354004,0.009482145309448242,0.02033233642578125,0.505598783493042,0.2131601721048355,0.013469220139086246,0.037216879427433014,-0.32705023884773254,0.11925555765628815,0.7763637900352478,0.0,0.0,0.3,0.0,0.0,0.0,0.4,0.0,0.0,0.0,0.0,0.7,0.8835006952285767,376.04876708984375,692.7802153205469
1.4599883556365967,1,46.30076599121094,0.012278632260859013,0.3067086935043335,0.0032508373260498047,0.022866010665893555,0.5212526321411133,0.2132272571325302,0.017401916906237602,0.03775736317038536,-0.23598557710647583,0.1021416112780571,0.7660260200500488,0.0,0.0,0.3,0.0,0.0,0.0,0.4,0.0,0.0,0.0,0.0,0.7,0.7222709655761719,346.38983154296875,700.6922032992791
1.4799880981445312,1,46.30442810058594,0.01450251042842865,0.3073790669441223,-0.0003883838653564453,0.024984359741210938,0.5367467403411865,0.21587532758712769,0.01935153268277645,0.02576061710715294,-0.12402428686618805,0.07366497069597244,0.7613208889961243,0.0,0.0,0.3,0.0,0.0,0.0,0.4,0.0,0.0,0.0,0.0,0.7,0.5732532143592834,333.92340087890625,707.9164962745037
1.4999878406524658,1,46.308101654052734,0.01684364303946495,0.30765286087989807,-0.001489877700805664,0.02632308006286621,0.552239179611206,0.2225690484046936,0.020120058208703995,0.005622844211757183,-0.0319693423807621,0.03937627002596855,0.7689144015312195,0.0,0.0,0.3,0.0,0.0,0.0,0.4,0.0,0.0,0.0,0.0,0.7,0.49446141719818115,344.4073486328125,714.7195410110928
1.5199875831604004,1,46.311920166015625,0.019337240606546402,0.3074236512184143,-0.0006792545318603516,0.026584148406982422,0.5679328441619873,0.2339896708726883,0.020090565085411072,-0.014592595398426056,0.038639508187770844,-0.005995362531393766,0.7871981263160706,0.0,0.0,0.3,0.0,0.0,0.0,0.4,0.0,0.0,0.0,0.0,0.7,0.45471662282943726,364.06475830078125,721.5027611738171
1.539987325668335,1,46.315895080566406,0.021828535944223404,0.306308776140213,-0.0011112689971923828,0.026131629943847656,0.5821788311004639,0.23374469578266144,0.004407028201967478,-0.10702892392873764,0.13400396704673767,-0.002629634691402316,0.5867315530776978,0.0,0.0,0.3,0.0,0.0,0.0,0.4,0.0,0.0,0.0,0.0,0.5915324034476422,0.5326640605926514,582.6002807617188,728.58739103018
1.5599870681762695,1,46.31986618041992,0.02398725599050522,0.3040141463279724,-0.005495309829711914,0.028461694717407227,0.592947244644165,0.22082798182964325,-0.018482262268662453,-0.10057369619607925,-0.36912545561790466,0.20855090022087097,0.5060673356056213,0.0,0.0,0.3,0.0,0.0,0.0,0.4,0.0,0.0,0.0,0.0,0.46013963335485913,1.260474681854248,697.7266845703125,738.0539195414369
1.579986810684204,1,46.32382583618164,0.025799144059419632,0.30203357338905334,-0.01625370979309082,0.033727169036865234,0.6026451587677002,0.2126948982477188,-0.03177301213145256,-0.08363751322031021,-0.3923393785953522,0.26825347542762756,0.4508839547634125,0.0,0.0,0.3,0.0,0.0,0.0,0.4,0.0,0.0,0.0,0.0,0.3247361078621507,1.699440598487854,749.9329833984375,750.8570243577399
1.5999865531921387,1,46.327823638916016,0.027419093996286392,0.30048254132270813,-0.024347543716430664,0.03906393051147461,0.6108644008636475,0.2118697464466095,-0.04272344708442688,-0.0593535490334034,-0.2301623821258545,0.2264004498720169,0.3671528100967407,0.0,0.0,0.3,0.0,0.0,0.0,0.4,0.0,0.0,0.0,0.0,0.18653653248111282,1.4205368757247925,737.9352416992188,765.3334346569884
1.6199862957000732,1,46.331966400146484,0.029003258794546127,0.29949644207954407,-0.02743077278137207,0.04249906539916992,0.6169741153717041,0.2185531109571457,-0.05090907961130142,-0.027124743908643723,-0.04535079747438431,0.11637575179338455,0.25408095121383667,0.0,0.0,0.3,0.0,0.0,0.0,0.4,0.0,0.0,0.0,0.0,0.046744526008447695,1.0556272268295288,690.04833984375,780.2119253508338
1.6399860382080078,1,46.33628463745117,0.030619870871305466,0.29916730523109436,-0.02677750587463379,0.043779850006103516,0.6207773685455322,0.2243056446313858,-0.05786195024847984,0.006379459053277969,0.09104453027248383,0.027339836582541466,0.13929495215415955,0.0,0.0,0.3,0.0,0.0,0.0,0.4,0.0,0.0,0.0,0.0,-0.09344491372621737,0.9561152458190918,613.8641967773438,794.4915773190426
1.6599857807159424,1,46.3407096862793,0.032229743897914886,0.29952284693717957,-0.022945642471313477,0.043695688247680664,0.6223258972167969,0.22564053535461426,-0.06436415761709213,0.03869660943746567,0.22089673578739166,-0.028717288747429848,0.028988560661673546,0.0,0.0,0.3,0.0,0.0,0.0,0.4,0.0,0.0,0.0,0.0,-0.2328392099698188,1.0531221628189087,536.04150390625,807.5305348116874
1.679985523223877,1,46.34514236450195,0.033756934106349945,0.3004765808582306,-0.01644444465637207,0.0432286262512207,0.6214296817779541,0.2220585197210312,-0.07122700661420822,0.06270596385002136,0.3022949993610382,-0.04080508276820183,-0.09320594370365143,0.0,0.0,0.3,0.0,0.0,0.0,0.4,0.0,0.0,0.0,0.0,-0.3702410507549984,1.2021424770355225,463.1365966796875,819.0294437727264
1.6999852657318115,1,46.349605560302734,0.03515045344829559,0.30178534984588623,-0.008879899978637695,0.04262351989746094,0.6179506778717041,0.21725605428218842,-0.07783464342355728,0.07303694635629654,0.31590667366981506,-0.054132428020238876,-0.2201240211725235,0.0,0.0,0.3,0.0,0.0,0.0,0.4,0.0,0.0,0.0,0.0,-0.5044431363023717,1.2555633783340454,407.9723205566406,829.0210961383693
1.719985008239746,1,46.3540153503418,0.03640403598546982,0.30313169956207275,-0.0019142627716064453,0.041611671447753906,0.6119430065155029,0.21338322758674622,-0.08366446942090988,0.06909036636352539,0.2762446701526642,-0.07725455611944199,-0.34299662709236145,0.0,0.0,0.3,0.0,0.0,0.0,0.4,0.0,0.0,0.0,0.0,-0.6342275249606829,1.2106494903564453,378.9565734863281,837.7320731589155
1.7399847507476807,1,46.35844039916992,0.03754203021526337,0.30421480536460876,0.0033960342407226562,0.039911508560180664,0.6035196781158447,0.21265952289104462,-0.0889221653342247,0.05234334245324135,0.20913876593112946,-0.11013434827327728,-0.46561795473098755,0.0,0.0,0.3,0.0,0.0,0.0,0.4,0.0,0.0,0.0,0.0,-0.7,0.9824579954147339,368.1416015625,845.601260785372
1.7599844932556152,1,46.36293029785156,0.0386066772043705,0.30481791496276855,0.006623029708862305,0.03736567497253418,0.5927326679229736,0.21634690463542938,-0.09440825134515762,0.02874801680445671,0.12270230054855347,-0.1437276154756546,-0.5821266174316406,0.0,0.0,0.3,0.0,0.0,0.0,0.4,0.0,0.0,0.0,0.0,-0.7,0.7030850648880005,367.9676513671875,853.0721463499342
1.7799842357635498,1,46.367408752441406,0.039644889533519745,0.3045632243156433,0.005706787109375,0.03468775749206543,0.5815243721008301,0.22511211037635803,-0.08658833801746368,-0.06156305968761444,-0.027182472869753838,-0.26489394903182983,-0.5040915012359619,0.0,0.0,0.3,0.0,0.0,0.0,0.4,0.0,0.0,0.0,0.0,-0.7,0.8555725812911987,261.3641357421875,860.4331441080851
1.7999839782714844,1,46.37156295776367,0.04074644297361374,0.3033892512321472,0.02092432975769043,0.029163360595703125,0.5735633373260498,0.1945265829563141,-0.06555162370204926,0.00966917909681797,1.3669781684875488,-0.4850759506225586,-0.3563491702079773,0.0,0.0,0.3,0.0,0.0,0.0,0.4,0.0,0.0,0.0,0.0,-0.7,8.740318298339844,1058.2620849609375,866.726380955208
1.819983720779419,1,46.37546920776367,0.04200395941734314,0.30321305990219116,0.03998422622680664,0.020045042037963867,0.5655436515808105,0.20722265541553497,-0.049718890339136124,0.006961800158023834,0.3981224596500397,-0.3773287534713745,-0.4084085524082184,0.0,0.0,0.3,0.0,0.0,0.0,0.4,0.0,0.0,0.0,0.0,-0.7,2.1396100521087646,526.0287475585938,879.9224732655987
1.8399834632873535,1,46.37944412231445,0.043869178742170334,0.3028436601161957,0.04552197456359863,0.015038728713989258,0.5560703277587891,0.22487282752990723,-0.024995479732751846,-0.009922156110405922,0.2275051772594452,-0.1647471934556961,-0.48622262477874756,0.0,0.0,0.3,0.0,0.0,0.0,0.4,0.0,0.0,0.0,0.0,-0.7,1.1870267391204834,497.9205322265625,895.7651776196346
1.859983205795288,1,46.38340377807617,0.04624394327402115,0.30233094096183777,0.048166751861572266,0.013645410537719727,0.5455813407897949,0.2346453219652176,-0.008476867340505123,-0.01836204342544079,-0.03407270088791847,-0.03804114833474159,-0.5306153893470764,0.0,0.0,0.3,0.0,0.0,0.0,0.4,0.0,0.0,0.0,0.0,-0.7,0.7450768351554871,504.1189880371094,906.0045385880787
1.8799829483032227,1,46.3873405456543,0.04888539761304855,0.30189090967178345,0.04520463943481445,0.014236211776733398,0.5345265865325928,0.238335981965065,0.0021703196689486504,-0.012985295616090298,-0.23581011593341827,0.029816335067152977,-0.5623171925544739,0.0,0.0,0.3,0.0,0.0,0.0,0.4,0.0,0.0,0.0,0.0,-0.7,0.7745686769485474,504.03204345703125,916.0248047821026
1.8999826908111572,1,46.39124298095703,0.05165945738554001,0.30179816484451294,0.03745245933532715,0.015590190887451172,0.5228760242462158,0.23866964876651764,0.010560624301433563,0.006755603477358818,-0.3941640257835388,0.04513587802648544,-0.5964568853378296,0.0,0.0,0.3,0.0,0.0,0.0,0.4,0.0,0.0,0.0,0.0,-0.7,0.9878523349761963,485.7325134277344,926.1061853015983
1.9199824333190918,1,46.39508056640625,0.054512400180101395,0.30220353603363037,0.027310609817504883,0.01732349395751953,0.5108864307403564,0.23561632633209229,0.019377967342734337,0.029200632125139236,-0.42560550570487976,0.05704999715089798,-0.6114470362663269,0.0,0.0,0.3,0.0,0.0,0.0,0.4,0.0,0.0,0.0,0.0,-0.7,1.0563780069351196,443.9414978027344,936.003703442186
1.9399821758270264,1,46.398807525634766,0.057423681020736694,0.30300167202949524,0.017951250076293945,0.019202232360839844,0.49892139434814453,0.23146405816078186,0.027631742879748344,0.0431385301053524,-0.34845131635665894,0.05313343554735184,-0.6095907688140869,0.0,0.0,0.3,0.0,0.0,0.0,0.4,0.0,0.0,0.0,0.0,-0.7,0.8751692771911621,396.9112243652344,945.30032386265
1.959981918334961,1,46.402408599853516,0.06038352847099304,0.3039415180683136,0.010976314544677734,0.020890235900878906,0.48706984519958496,0.228071391582489,0.03477536886930466,0.04426848515868187,-0.24206982553005219,0.040963731706142426,-0.6063011288642883,0.0,0.0,0.3,0.0,0.0,0.0,0.4,0.0,0.0,0.0,0.0,0.32918187755515316,4.373103618621826,368.2532653808594,953.7087428278776
1.9799816608428955,1,46.40592956542969,0.06338280439376831,0.30476054549217224,0.006264448165893555,0.021956682205200195,0.47631120681762695,0.2273097187280655,0.04291187971830368,0.03540293127298355,-0.16928166151046753,0.002566479379311204,-0.42567846179008484,0.0,0.0,0.3,0.0,0.0,0.0,0.4,0.0,0.0,0.0,0.0,0.34444547774548334,3.0550782680511475,580.8304443359375,961.3602892134461
1.99998140335083,1,46.40953063964844,0.06642458587884903,0.3053189516067505,0.0032949447631835938,0.021740436553955078,0.4713773727416992,0.23047105967998505,0.051925987005233765,0.02448568306863308,-0.08904576301574707,-0.03948222100734711,-0.1326223909854889,0.0,0.0,0.3,0.0,0.0,0.0,0.4,0.0,0.0,0.0,0.0,0.36019717123711287,1.4614938497543335,538.4315185546875,970.8510041198517
2.01998233795166,1,46.41323471069336,0.0695553570985794,0.3055644631385803,0.0017800331115722656,0.02032184600830078,0.4710698127746582,0.2383299469947815,0.05763218179345131,0.011418923735618591,-0.0434003546833992,-0.08233621716499329,0.059567127376794815,0.0,0.0,0.3,0.0,0.0,0.0,0.4,0.0,0.0,0.0,0.0,0.3763862949891584,0.8017964363098145,471.63714599609375,982.0434796482207
2.0399832725524902,1,46.41704177856445,0.07259932160377502,0.3048485815525055,-0.0008623600006103516,0.017925500869750977,0.47368383407592773,0.24121201038360596,0.04748660698533058,-0.11159410327672958,0.29788222908973694,-0.051771752536296844,0.06007521227002144,0.0,0.0,0.3,0.0,0.0,0.0,0.4,0.0,0.0,0.0,0.0,0.3929451091346063,1.1975104808807373,261.8294677734375,992.1446382992347
2.0599842071533203,1,46.420867919921875,0.07527346163988113,0.3028998076915741,-7.081031799316406e-05,0.018562793731689453,0.4766998291015625,0.22214046120643616,0.028525520116090775,-0.06537753343582153,-0.03192216157913208,0.09158211946487427,0.2043052464723587,0.0,0.0,0.3,0.0,0.0,0.0,0.4,0.0,0.0,0.0,0.0,0.4097859319958828,0.6595457792282104,718.5036010742188,999.479647186183
2.0799851417541504,1,46.424713134765625,0.07755038142204285,0.3017933964729309,-0.0007469654083251953,0.019594192504882812,0.48177385330200195,0.2246936857700348,0.010398173704743385,-0.036933425813913345,0.04913046583533287,0.030323149636387825,0.25354668498039246,0.0,0.0,0.3,0.0,0.0,0.0,0.4,0.0,0.0,0.0,0.0,0.4267980607142628,0.5551473498344421,646.8760375976562,1009.2834359847095
2.0999860763549805,1,46.42880630493164,0.07957861572504044,0.30110713839530945,0.00032591819763183594,0.01927924156188965,0.4873530864715576,0.22834859788417816,-0.006626990623772144,-0.018197976052761078,0.049673065543174744,-0.01191885769367218,0.27231577038764954,0.0,0.0,0.3,0.0,0.0,0.0,0.4,0.0,0.0,0.0,0.0,0.44384454317817723,0.518211305141449,596.9966430664062,1022.9378704139001
2.1199870109558105,1,46.43305969238281,0.08136109262704849,0.3007536828517914,0.0012967586517333984,0.018625259399414062,0.4931023120880127,0.22841952741146088,-0.02132548578083515,-0.003959897439926863,0.06050996482372284,-0.01696145534515381,0.28163981437683105,0.0,0.0,0.3,0.0,0.0,0.0,0.4,0.0,0.0,0.0,0.0,0.46075890252567303,0.5304892659187317,547.0557861328125,1035.3771784827607
2.1399879455566406,1,46.43738555908203,0.08291873335838318,0.30071425437927246,0.002589702606201172,0.018275022506713867,0.49892306327819824,0.2264932096004486,-0.033502768725156784,0.009325327351689339,0.062220484018325806,-0.005900184623897076,0.2905389666557312,0.0,0.0,0.3,0.0,0.0,0.0,0.4,0.0,0.0,0.0,0.0,0.4773419590843836,0.5541172623634338,498.88861083984375,1046.8182373909278
2.1599888801574707,1,46.44178771972656,0.08427745848894119,0.3010099232196808,0.004235267639160156,0.018555879592895508,0.5048305988311768,0.2229410707950592,-0.04344768822193146,0.024229472503066063,0.07368737459182739,0.02395659126341343,0.3035002052783966,0.0,0.0,0.3,0.0,0.0,0.0,0.4,0.0,0.0,0.0,0.0,0.49335894578253,0.5965172052383423,470.0724182128906,1057.2781701309052
2.179989814758301,1,46.4461784362793,0.08545635640621185,0.30165353417396545,0.006232261657714844,0.01987934112548828,0.5108902454376221,0.2173716127872467,-0.050900768488645554,0.038227032870054245,0.07174499332904816,0.0629357323050499,0.31736037135124207,0.0,0.0,0.3,0.0,0.0,0.0,0.4,0.0,0.0,0.0,0.0,0.5085371702082784,0.6580483317375183,429.4063415527344,1066.9682332173236
2.199990749359131,1,46.45051193237305,0.08648929744958878,0.30254343152046204,0.00807952880859375,0.021952152252197266,0.5171887874603271,0.2121778428554535,-0.0565936453640461,0.04544448480010033,0.05322567746043205,0.08296003937721252,0.33445218205451965,0.0,0.0,0.3,0.0,0.0,0.0,0.4,0.0,0.0,0.0,0.0,0.5225645363427549,0.7012045383453369,399.4387512207031,1075.9634411417776
2.219991683959961,1,46.45479965209961,0.08741845935583115,0.3034641444683075,0.009224176406860352,0.024018049240112305,0.5238296985626221,0.20884649455547333,-0.060843344777822495,0.042504340410232544,0.015692800283432007,0.06653928756713867,0.35450315475463867,0.0,0.0,0.3,0.0,0.0,0.0,0.4,0.0,0.0,0.0,0.0,0.5350892961546618,0.6923832297325134,382.4564208984375,1084.2522793891678
2.239992618560791,1,46.459129333496094,0.0882866382598877,0.30417314171791077,0.00936269760131836,0.025325298309326172,0.5309278964996338,0.2086818367242813,-0.06478741019964218,0.029338911175727844,-0.01989193633198738,0.026311639696359634,0.3774431347846985,0.0,0.0,0.3,0.0,0.0,0.0,0.4,0.0,0.0,0.0,0.0,0.5457214478720371,0.6520476341247559,377.5903015136719,1092.0715964902977
2.259993553161621,1,46.46352767944336,0.08913092315196991,0.30448994040489197,0.0085906982421875,0.02542567253112793,0.5386176109313965,0.21237711608409882,-0.06919780373573303,0.011335065588355064,-0.05380825698375702,-0.027192462235689163,0.40346017479896545,0.0,0.0,0.3,0.0,0.0,0.0,0.4,0.0,0.0,0.0,0.0,0.5540362234709144,0.598449170589447,392.02569580078125,1099.6724188845676
2.279994487762451,1,46.467994689941406,0.09003883600234985,0.3040124773979187,0.00710606575012207,0.023958444595336914,0.5476806163787842,0.22145140171051025,-0.06496753543615341,-0.09176027029752731,-0.17167454957962036,-0.14020340144634247,0.5919234752655029,0.0,0.0,0.3,0.0,0.0,0.0,0.4,0.0,0.0,0.0,0.0,0.5595801002784972,0.6042988300323486,109.46044921875,1107.368938499587
2.2999954223632812,1,46.47224044799805,0.09112794697284698,0.3023786246776581,0.007876157760620117,0.02282571792602539,0.559912919998169,0.20101112127304077,-0.04423004761338234,-0.04466884210705757,0.13946683704853058,0.007999857887625694,0.6255359053611755,0.0,0.0,0.3,0.0,0.0,0.0,0.4,0.0,0.0,0.0,0.0,0.561879717138403,0.6567553877830505,765.90087890625,1112.3840342944661
2.3199963569641113,1,46.47620391845703,0.09255758672952652,0.3015862703323364,0.010142326354980469,0.022578716278076172,0.5721323490142822,0.20887869596481323,-0.025349222123622894,-0.021931422874331474,-0.008312182500958443,0.006488692481070757,0.6219329237937927,0.0,0.0,0.3,0.0,0.0,0.0,0.4,0.0,0.0,0.0,0.0,0.560453961863707,0.512602686882019,628.8688354492188,1121.138056632428
2.3399972915649414,1,46.480140686035156,0.09445130079984665,0.3010918200016022,0.011026859283447266,0.021958351135253906,0.5842008590698242,0.21920090913772583,-0.009211784228682518,-0.010079669766128063,0.007180807180702686,-0.0029326435178518295,0.6177956461906433,0.0,0.0,0.3,0.0,0.0,0.0,0.4,0.0,0.0,0.0,0.0,0.5548293150186125,0.46568018198013306,570.7261962890625,1135.0864055524492
2.3599982261657715,1,46.484039306640625,0.09671370685100555,0.3008299469947815,0.012110710144042969,0.02144765853881836,0.5962848663330078,0.22518476843833923,0.0027072906959801912,0.00015828292816877365,-0.034094057977199554,0.009130585938692093,0.6217204332351685,0.0,0.0,0.3,0.0,0.0,0.0,0.4,0.0,0.0,0.0,0.0,0.5445582838774571,0.44644632935523987,526.5161743164062,1147.0829164410882
2.3799991607666016,1,46.48786544799805,0.09922299534082413,0.3008386492729187,0.01155710220336914,0.021613597869873047,0.6086571216583252,0.227378711104393,0.010986944660544395,0.01212635450065136,-0.10456374287605286,0.04403706267476082,0.6341203451156616,0.0,0.0,0.3,0.0,0.0,0.0,0.4,0.0,0.0,0.0,0.0,0.5292404486803166,0.49325889348983765,486.8173522949219,1158.055852888958
2.4000000953674316,1,46.49159240722656,0.10188382863998413,0.3011280596256256,0.008730888366699219,0.022541522979736328,0.6216366291046143,0.22804975509643555,0.016024868935346603,0.023287763819098473,-0.1698533147573471,0.06431805342435837,0.6573149561882019,0.0,0.0,0.3,0.0,0.0,0.0,0.4,0.0,0.0,0.0,0.0,0.5085452929740556,0.6083629131317139,445.8342590332031,1168.1896616862489
2.4200010299682617,1,46.4952392578125,0.10464275628328323,0.30173397064208984,0.004623889923095703,0.024302005767822266,0.6350069046020508,0.2270810455083847,0.019139394164085388,0.03751646354794502,-0.18945343792438507,0.09490359574556351,0.6596658825874329,0.0,0.0,0.3,0.0,0.0,0.0,0.4,0.0,0.0,0.0,0.0,0.48223563626262206,0.719923734664917,405.4570007324219,1177.5166136280152
2.440001964569092,1,46.4987907409668,0.10747455805540085,0.3026590347290039,0.0004818439483642578,0.026769638061523438,0.6481354236602783,0.22608685493469238,0.020215226337313652,0.050291508436203,-0.17215169966220856,0.10767435282468796,0.6330013871192932,0.0,0.0,0.3,0.0,0.0,0.0,0.4,0.0,0.0,0.0,0.0,0.45019017672518086,0.7566015124320984,369.8146667480469,1186.0299240344305
2.460002899169922,1,46.50230407714844,0.11036062240600586,0.3037262558937073,-0.002573251724243164,0.029429197311401367,0.6606323719024658,0.22626246511936188,0.01977301947772503,0.051532186567783356,-0.10832434147596359,0.1012163907289505,0.5964328646659851,0.0,0.0,0.3,0.0,0.0,0.0,0.4,0.0,0.0,0.0,0.0,0.4124234359237756,0.7220810055732727,336.6333923339844,1193.7830029940071
2.480003833770752,1,46.50578308105469,0.11329485476016998,0.3046394884586334,-0.003842592239379883,0.031683921813964844,0.6724133491516113,0.2292127013206482,0.017899783328175545,0.03970344364643097,-0.040799885988235474,0.07468796521425247,0.5612603425979614,0.0,0.0,0.3,0.0,0.0,0.0,0.4,0.0,0.0,0.0,0.0,0.3691013243765306,0.6843361258506775,325.51763916015625,1200.8478137082986
2.500004768371582,1,46.50934600830078,0.11629709601402283,0.3051627576351166,-0.0033953189849853516,0.03303122520446777,0.683518648147583,0.2360764741897583,0.015195980668067932,0.020419523119926453,0.02912495657801628,0.030872011557221413,0.5320801734924316,0.0,0.0,0.3,0.0,0.0,0.0,0.4,0.0,0.0,0.0,0.0,0.3205506516433101,0.6660701036453247,331.84710693359375,1207.469633446692
2.520005702972412,1,46.513031005859375,0.11929643154144287,0.30493950843811035,-0.00413060188293457,0.03290915489196777,0.6920368671417236,0.2503829598426819,-9.144426439888775e-05,-0.053667351603507996,-0.10712435841560364,-0.09774705022573471,0.28541430830955505,0.0,0.0,0.3,0.0,0.0,0.0,0.4,0.0,0.0,0.0,0.0,0.2672612004028146,0.4512993395328522,104.29722595214844,1214.043588094448
2.540006637573242,1,46.516536712646484,0.12181811034679413,0.305063933134079,-0.0050737857818603516,0.036393165588378906,0.6971733570098877,0.18720968067646027,-0.017505042254924774,0.12071071565151215,0.019995572045445442,0.3941698372364044,0.267495334148407,0.0,0.0,0.3,0.0,0.0,0.0,0.4,0.0,0.0,0.0,0.0,0.20987945727572666,1.496721625328064,1869.56005859375,1218.4052352337333
2.5600075721740723,1,46.51997756958008,0.12398386001586914,0.3072127103805542,-0.0025131702423095703,0.042096614837646484,0.701397180557251,0.2025090605020523,-0.026007607579231262,0.09056060016155243,0.10067765414714813,0.16359858214855194,0.1546168327331543,0.0,0.0,0.3,0.0,0.0,0.0,0.4,0.0,0.0,0.0,0.0,0.14919370351303265,0.9246871471405029,327.4387512207031,1238.1447304635205
2.5800085067749023,1,46.52366256713867,0.12627394497394562,0.30820053815841675,-0.001161813735961914,0.042706966400146484,0.703563928604126,0.21660412847995758,-0.03317558020353317,0.04231719672679901,0.01750989444553852,-0.013396445661783218,0.07789063453674316,0.0,0.0,0.3,0.0,0.0,0.0,0.4,0.0,0.0,0.0,0.0,0.08611085453066289,0.6278069019317627,335.9716491699219,1260.1157452201207
2.6000094413757324,1,46.52755355834961,0.12857487797737122,0.30833011865615845,-0.001703500747680664,0.04113125801086426,0.7045717239379883,0.22400838136672974,-0.04049010947346687,0.009945734404027462,-0.011630436405539513,-0.07520893216133118,0.0315619520843029,0.0,0.0,0.3,0.0,0.0,0.0,0.4,0.0,0.0,0.0,0.0,0.021626125242378662,0.567624568939209,375.5431213378906,1266.7501592359824
2.6200103759765625,1,46.53157424926758,0.13082724809646606,0.30805039405822754,-0.002309083938598633,0.039324283599853516,0.7048287391662598,0.22745870053768158,-0.047299984842538834,-0.0037122396752238274,0.006974788382649422,-0.07018310576677322,-0.0020485699642449617,0.0,0.0,0.3,0.0,0.0,0.0,0.4,0.0,0.0,0.0,0.0,-0.04321278607629937,0.5457597374916077,408.2080383300781,1273.8656394322081
2.6400113105773926,1,46.53569793701172,0.13301981985569,0.3077235221862793,-0.002000093460083008,0.03794264793395996,0.7044346332550049,0.22957944869995117,-0.053179848939180374,-0.0028369370847940445,0.04669530317187309,-0.054879941046237946,-0.035445887595415115,0.0,0.0,0.3,0.0,0.0,0.0,0.4,0.0,0.0,0.0,0.0,-0.10734482447357312,0.5465396642684937,420.8377685546875,1281.70351727613
2.6600122451782227,1,46.539920806884766,0.13515053689479828,0.30761972069740295,-0.00010895729064941406,0.037108659744262695,0.703270673751831,0.22964006662368774,-0.05789168179035187,0.009492700919508934,0.11456748098134995,-0.033751942217350006,-0.07525984942913055,0.0,0.0,0.3,0.0,0.0,0.0,0.4,0.0,0.0,0.0,0.0,-0.16973555345416078,0.5946859121322632,414.8095703125,1289.9943627584273
2.6800131797790527,1,46.54414749145508,0.13720189034938812,0.3078494071960449,0.0033273696899414062,0.037090301513671875,0.7009446620941162,0.22702156007289886,-0.061708398163318634,0.022587701678276062,0.15545782446861267,-0.004134282004088163,-0.13705910742282867,0.0,0.0,0.3,0.0,0.0,0.0,0.4,0.0,0.0,0.0,0.0,-0.22941544159679442,0.6593461036682129,385.3617858886719,1298.3512266454475
2.700014114379883,1,46.54836654663086,0.13916948437690735,0.3083149194717407,0.00722956657409668,0.03768277168273926,0.6972360610961914,0.2238447517156601,-0.06449614465236664,0.02939806692302227,0.15298420190811157,0.010759787634015083,-0.2029346227645874,0.0,0.0,0.3,0.0,0.0,0.0,0.4,0.0,0.0,0.0,0.0,-0.285514072586486,0.689307689666748,358.014892578125,1306.353314127866
2.720015048980713,1,46.55256271362305,0.14107459783554077,0.30879902839660645,0.010329246520996094,0.03824806213378906,0.6922142505645752,0.22233957052230835,-0.06614499539136887,0.025454748421907425,0.10658187419176102,-0.004166601225733757,-0.2654877305030823,0.0,0.0,0.3,0.0,0.0,0.0,0.4,0.0,0.0,0.0,0.0,-0.33728824841343896,0.6530902981758118,344.6255187988281,1313.7874282927644
2.740015983581543,1,46.55678176879883,0.14295823872089386,0.3090583384037018,0.011903047561645508,0.0382082462310791,0.6860172748565674,0.2241268903017044,-0.06721654534339905,0.011757614091038704,0.04956883192062378,-0.0339953638613224,-0.3240969181060791,0.0,0.0,0.3,0.0,0.0,0.0,0.4,0.0,0.0,0.0,0.0,-0.3841424859333661,0.5985539555549622,339.5482482910156,1320.8141607506898
2.760016918182373,1,46.56106948852539,0.14487290382385254,0.3089160919189453,0.011984586715698242,0.037259578704833984,0.6787381172180176,0.23029287159442902,-0.06821092963218689,-0.007083882577717304,0.001697879284620285,-0.07098252326250076,-0.38219526410102844,0.0,0.0,0.3,0.0,0.0,0.0,0.4,0.0,0.0,0.0,0.0,-0.4256410547105135,0.5437155365943909,350.5171813964844,1327.6562181362735
2.780017852783203,1,46.56536865234375,0.14685121178627014,0.3080112934112549,0.009470939636230469,0.0357668399810791,0.6720340251922607,0.23556840419769287,-0.06146780773997307,-0.11535435914993286,-0.38963669538497925,-0.07086140662431717,-0.2147340625524521,0.0,0.0,0.3,0.0,0.0,0.0,0.4,0.0,0.0,0.0,0.0,-0.4615113997646713,1.3676543235778809,198.1384735107422,1334.5571949010102
2.800018787384033,1,46.56938171386719,0.14895875751972198,0.3057346045970917,0.0075817108154296875,0.03519296646118164,0.668027400970459,0.2203332781791687,-0.03917327895760536,-0.0802667960524559,0.14688357710838318,-0.027088316157460213,-0.20485210418701172,0.0,0.0,0.3,0.0,0.0,0.0,0.4,0.0,0.0,0.0,0.0,-0.49163946133318837,0.9949876666069031,668.5029296875,1340.0440078370978
2.8200197219848633,1,46.5731201171875,0.15132229030132294,0.304154634475708,0.010805845260620117,0.034002065658569336,0.6631495952606201,0.22557011246681213,-0.020979732275009155,-0.05513227730989456,0.04813950136303902,-0.0615633986890316,-0.26283571124076843,0.0,0.0,0.3,0.0,0.0,0.0,0.4,0.0,0.0,0.0,0.0,-0.5160579743877494,0.8019900321960449,607.6051635742188,1348.7108268509676
2.8400206565856934,1,46.5767822265625,0.1540692001581192,0.30292728543281555,0.012857198715209961,0.03221011161804199,0.6571815013885498,0.23329123854637146,-0.003339112736284733,-0.0412091463804245,0.0834694653749466,-0.0808059424161911,-0.30942821502685547,0.0,0.0,0.3,0.0,0.0,0.0,0.4,0.0,0.0,0.0,0.0,-0.5349292480015524,0.7177672982215881,564.071044921875,1361.4725041094264
2.8600215911865234,1,46.580360412597656,0.15713293850421906,0.3019697964191437,0.015436887741088867,0.030561208724975586,0.6504166126251221,0.23731903731822968,0.010822697542607784,-0.028865903615951538,0.05194161459803581,-0.06264416128396988,-0.3486362099647522,0.0,0.0,0.3,0.0,0.0,0.0,0.4,0.0,0.0,0.0,0.0,-0.5485241569425396,0.6319419145584106,542.961669921875,1373.1898137191658
2.8800225257873535,1,46.58384323120117,0.1604079306125641,0.3013511300086975,0.016288280487060547,0.029657602310180664,0.6428897380828857,0.238664910197258,0.021051982417702675,-0.013040231540799141,-0.038288455456495285,-0.03446279466152191,-0.389742374420166,0.0,0.0,0.3,0.0,0.0,0.0,0.4,0.0,0.0,0.0,0.0,-0.5571991206716191,0.5600524544715881,513.4650268554688,1384.2606581844504
2.9000234603881836,1,46.58727264404297,0.16382038593292236,0.3011877238750458,0.013958930969238281,0.029355287551879883,0.6345245838165283,0.23862025141716003,0.02904987521469593,0.008898940868675709,-0.1530553251504898,-0.013674156740307808,-0.4345037639141083,0.0,0.0,0.3,0.0,0.0,0.0,0.4,0.0,0.0,0.0,0.0,-0.5613727195419133,0.5750373601913452,477.9407043457031,1394.8254188208577
2.9200243949890137,1,46.590599060058594,0.16730628907680511,0.3015615940093994,0.009045124053955078,0.02970576286315918,0.6255896091461182,0.23520104587078094,0.03590381145477295,0.03303994610905647,-0.22090546786785126,0.0064706141129136086,-0.46057355403900146,0.0,0.0,0.3,0.0,0.0,0.0,0.4,0.0,0.0,0.0,0.0,-0.5615033448994244,0.662619411945343,440.0502014160156,1404.7399394171791
2.9400253295898438,1,46.59379577636719,0.17082324624061584,0.30236661434173584,0.0034532546997070312,0.03061842918395996,0.6165034770965576,0.23021510243415833,0.04249844700098038,0.047671280801296234,-0.20604591071605682,0.024131692945957184,-0.4661213457584381,0.0,0.0,0.3,0.0,0.0,0.0,0.4,0.0,0.0,0.0,0.0,-0.2609464051006533,0.8067331910133362,390.6913146972656,1413.9202774523276
2.960026264190674,1,46.596900939941406,0.17435280978679657,0.3033442497253418,-0.001127481460571289,0.031531333923339844,0.6077768802642822,0.2259870022535324,0.048571761697530746,0.05068974569439888,-0.152841717004776,0.006615439895540476,-0.4134678542613983,0.0,0.0,0.3,0.0,0.0,0.0,0.4,0.0,0.0,0.0,0.0,-0.26928705248969576,0.6715808510780334,405.83282470703125,1422.2280808193157
2.980027198791504,1,46.59992218017578,0.17789462208747864,0.304240882396698,-0.004186868667602539,0.03174948692321777,0.6007497310638428,0.22431185841560364,0.05437857657670975,0.04313691332936287,-0.08955832570791245,-0.025832083076238632,-0.33150577545166016,0.0,0.0,0.3,0.0,0.0,0.0,0.4,0.0,0.0,0.0,0.0,-0.2775800485803577,0.539243221282959,384.3453369140625,1430.1936944294196
3.000028133392334,1,46.6029052734375,0.18148185312747955,0.3048507273197174,-0.005735635757446289,0.031027555465698242,0.594876766204834,0.2263864278793335,0.05918183922767639,0.02784818410873413,-0.034259457141160965,-0.06456468999385834,-0.28842851519584656,0.0,0.0,0.3,0.0,0.0,0.0,0.4,0.0,0.0,0.0,0.0,-0.2857502356737882,0.4825493097305298,370.43695068359375,1438.0958452962134
3.020029067993164,1,46.606021881103516,0.18502503633499146,0.3046942949295044,-0.008371591567993164,0.028862953186035156,0.588557243347168,0.2403392791748047,0.048116717487573624,-0.046582695096731186,-0.1634974628686905,-0.19487576186656952,-0.41489890217781067,0.0,0.0,0.3,0.0,0.0,0.0,0.4,0.0,0.0,0.0,0.0,-0.2937085115398142,0.6838762164115906,108.99474334716797,1445.6440208822662
3.040030002593994,1,46.60914611816406,0.1879655420780182,0.3049260079860687,-0.006963968276977539,0.034451961517333984,0.5822632312774658,0.18569248914718628,0.015031066723167896,0.11901813000440598,0.13405919075012207,0.6028251647949219,-0.19607038795948029,0.0,0.0,0.3,0.0,0.0,0.0,0.4,0.0,0.0,0.0,0.0,-0.3013502195335485,2.3921608924865723,1843.1246337890625,1450.4385618612034
3.060030937194824,1,46.612403869628906,0.19039592146873474,0.3071154057979584,-0.0013134479522705078,0.04406404495239258,0.5777170658111572,0.2045741230249405,0.0059576439671218395,0.08957288414239883,0.22680695354938507,0.31642282009124756,-0.2841227352619171,0.0,0.0,0.3,0.0,0.0,0.0,0.4,0.0,0.0,0.0,0.0,-0.30855354163085047,1.4187275171279907,370.13201904296875,1469.9606678587609
3.0800318717956543,1,46.6159782409668,0.19293925166130066,0.3081717789173126,0.0017931461334228516,0.046732187271118164,0.5713248252868652,0.22085602581501007,0.0003863982856273651,0.04676668345928192,0.09175052493810654,0.061442382633686066,-0.3501328229904175,0.0,0.0,0.3,0.0,0.0,0.0,0.4,0.0,0.0,0.0,0.0,-0.3151779643219394,0.7423633933067322,364.44677734375,1492.0942686428336
3.1000328063964844,1,46.61978530883789,0.19547098875045776,0.3084650933742523,0.0017139911651611328,0.04593181610107422,0.5641744136810303,0.22934313118457794,-0.005658705718815327,0.02042018622159958,0.01960795186460018,-0.04913196340203285,-0.37212783098220825,0.0,0.0,0.3,0.0,0.0,0.0,0.4,0.0,0.0,0.0,0.0,-0.3210629107432772,0.6077719330787659,383.79931640625,1499.4403998756773
3.1200337409973145,1,46.623756408691406,0.19792549312114716,0.3084180951118469,0.0009431838989257812,0.04425358772277832,0.5567882061004639,0.23386026918888092,-0.011520374566316605,0.009040934965014458,0.015584206208586693,-0.0647692158818245,-0.379411906003952,0.0,0.0,0.3,0.0,0.0,0.0,0.4,0.0,0.0,0.0,0.0,-0.326026659417155,0.5702559947967529,399.8467712402344,1506.9232104688874
3.1400346755981445,1,46.6278190612793,0.2002975195646286,0.30828776955604553,0.0007195472717285156,0.04277777671813965,0.5490641593933105,0.23708629608154297,-0.016087999567389488,0.005877100862562656,0.032075442373752594,-0.05945318937301636,-0.3971768021583557,0.0,0.0,0.3,0.0,0.0,0.0,0.4,0.0,0.0,0.0,0.0,-0.32986569977290686,0.5520827174186707,407.91802978515625,1514.7600375434943
