Timestamp,ActionMode,Lyapunov_energy,px,py,pz,roll,pitch,yaw,vx,vy,vz,wx,wy,wz,px_ref,py_ref,pz_ref,roll_ref,pitch_ref,yaw_ref,vx_ref,vy_ref,vz_ref,wx_ref,wy_ref,wz_ref
0.0,0,1.8033095598220825,46.0,2.578919933507451e-12,0.29996079206466675,-2.384185791015625e-07,0.0,0.0,2.4787486299637784e-11,7.350443864684308e-11,-0.019620001316070557,-6.21937212841317e-09,-2.8610229740877458e-09,1.076842018332691e-10,0.0,0.0,0.3,0.0,0.0,0.0,0.4,0.0,0.0,0.0,0.0,0.07472086531736201
0.020000001415610313,0,1.7766671180725098,46.00020217895508,-1.9359969883225858e-05,0.2978343069553375,-0.0005552768707275391,-0.00047707557678222656,5.221366882324219e-05,0.028860818594694138,-0.001271910616196692,-0.16044333577156067,-0.047608546912670135,-0.15739597380161285,0.0022485926747322083,0.0,0.0,0.3,0.0,0.0,0.0,0.4,0.0,0.0,0.0,0.0,0.07700296557337011
0.04000000283122063,0,1.5186080932617188,46.00114440917969,-0.0002488555037416518,0.2943698465824127,-0.002916574478149414,-0.00016999244689941406,0.0004324913024902344,0.06120234355330467,-0.023280572146177292,-0.17046158015727997,-0.07178027927875519,0.12847362458705902,0.0036111827939748764,0.0,0.0,0.3,0.0,0.0,0.0,0.4,0.0,0.0,0.0,0.0,0.0794723204092196
0.06000000610947609,0,1.2416067123413086,46.00282287597656,-0.0009997054003179073,0.2912455201148987,-0.0030443668365478516,0.0026578903198242188,0.0005254745483398438,0.10031893104314804,-0.04587245732545853,-0.13983173668384552,0.04930603504180908,0.14766456186771393,-0.005673402454704046,0.0,0.0,0.3,0.0,0.0,0.0,0.4,0.0,0.0,0.0,0.0,0.08207439846504003
0.07999997586011887,0,1.0076954364776611,46.005306243896484,-0.002140154130756855,0.28872355818748474,-0.0010597705841064453,0.0047495365142822266,0.0003540515899658203,0.13876330852508545,-0.06455125659704208,-0.10948393493890762,0.10286731272935867,0.10692334920167923,-0.029755741357803345,0.0,0.0,0.3,0.0,0.0,0.0,0.4,0.0,0.0,0.0,0.0,0.0848096450599493
0.09999994188547134,0,0.8510192632675171,46.008487701416016,-0.0035926143173128366,0.2867841422557831,0.0015308856964111328,0.00598597526550293,-0.0003101825714111328,0.17007622122764587,-0.078622967004776,-0.07997213304042816,0.11796428263187408,0.07590582966804504,-0.05337536334991455,0.0,0.0,0.3,0.0,0.0,0.0,0.4,0.0,0.0,0.0,0.0,0.08768493728933488
0.11999990791082382,0,0.7847323417663574,46.01219177246094,-0.005291617009788752,0.28543877601623535,0.004225015640258789,0.007136344909667969,-0.0014955997467041016,0.19314329326152802,-0.09111572057008743,-0.051528479903936386,0.1219545230269432,0.08325651288032532,-0.07962255924940109,0.0,0.0,0.3,0.0,0.0,0.0,0.4,0.0,0.0,0.0,0.0,0.09070913872406446
0.13999992609024048,0,0.7758944034576416,46.016273498535156,-0.0072137475945055485,0.2847226858139038,0.0066525936126708984,0.008978843688964844,-0.003278017044067383,0.2096385657787323,-0.10097559541463852,-0.020741712301969528,0.10737434774637222,0.11593696475028992,-0.1038210391998291,0.0,0.0,0.3,0.0,0.0,0.0,0.4,0.0,0.0,0.0,0.0,0.09389231402987833
0.15999996662139893,0,0.8402547836303711,46.02062225341797,-0.00929816160351038,0.28469908237457275,0.008968114852905273,0.011950016021728516,-0.0056154727935791016,0.22231736779212952,-0.1073671206831932,0.012330370023846626,0.10869753360748291,0.1614045649766922,-0.12505406141281128,0.0,0.0,0.3,0.0,0.0,0.0,0.4,0.0,0.0,0.0,0.0,0.09724558085525173
0.18000000715255737,0,0.9738879799842834,46.025169372558594,-0.011482778936624527,0.2853887677192688,0.012038469314575195,0.016137361526489258,-0.008442163467407227,0.23200708627700806,-0.11058029532432556,0.04552944004535675,0.12710511684417725,0.2057015746831894,-0.14489829540252686,0.0,0.0,0.3,0.0,0.0,0.0,0.4,0.0,0.0,0.0,0.0,0.10078112783713168
0.20000004768371582,0,1.089166283607483,46.0298957824707,-0.013725429773330688,0.28668907284736633,0.015584230422973633,0.021210670471191406,-0.01166844367980957,0.2401779145002365,-0.11174829304218292,0.07192321866750717,0.12730711698532104,0.22868779301643372,-0.16097041964530945,0.0,0.0,0.3,0.0,0.0,0.0,0.4,0.0,0.0,0.0,0.0,0.10451229329008897
0.22000008821487427,0,1.1229575872421265,46.03478240966797,-0.01599554531276226,0.2883414924144745,0.01840043067932129,0.026483535766601562,-0.015207529067993164,0.24816365540027618,-0.11146658658981323,0.08347506076097488,0.08774151653051376,0.22538155317306519,-0.17582882940769196,0.0,0.0,0.3,0.0,0.0,0.0,0.4,0.0,0.0,0.0,0.0,0.10845367574692044
0.24000012874603271,0,1.0597727298736572,46.039852142333984,-0.018261045217514038,0.29002898931503296,0.019750118255615234,0.031214475631713867,-0.01894211769104004,0.25808411836624146,-0.10980575531721115,0.08254559338092804,0.029733631759881973,0.18824875354766846,-0.18306538462638855,0.0,0.0,0.3,0.0,0.0,0.0,0.4,0.0,0.0,0.0,0.0,0.11262126811343208
0.26000016927719116,0,0.9806956052780151,46.04517364501953,-0.020514866337180138,0.29147541522979736,0.019086599349975586,0.03484392166137695,-0.022742509841918945,0.2716430127620697,-0.1088666021823883,0.07019742578268051,-0.0492919385433197,0.1378106027841568,-0.190543994307518,0.0,0.0,0.3,0.0,0.0,0.0,0.4,0.0,0.0,0.0,0.0,0.11703261396010099
0.2800002098083496,0,0.8142161965370178,46.05064392089844,-0.02265199087560177,0.2920776605606079,0.015807628631591797,0.03688764572143555,-0.025171518325805664,0.27751031517982483,-0.09844817966222763,-0.05715205520391464,-0.30642032623291016,0.07161171734333038,0.02344483509659767,0.0,0.0,0.3,0.0,0.0,0.0,0.4,0.0,0.0,0.0,0.0,0.1217069872007442
0.30000025033950806,0,2.847442388534546,46.05586242675781,-0.02433844842016697,0.29154813289642334,0.008829832077026367,0.04412031173706055,-0.02599358558654785,0.24927547574043274,-0.06662347167730331,0.008522436022758484,-0.3886515498161316,0.5818706154823303,-0.11282070726156235,0.0,0.0,0.3,0.0,0.0,0.0,0.4,0.0,0.0,0.0,0.0,0.12666559783682424
0.3200002908706665,0,2.050809621810913,46.0609130859375,-0.025496508926153183,0.29174989461898804,0.002337932586669922,0.05440640449523926,-0.02759575843811035,0.25194141268730164,-0.045719269663095474,0.018807800486683846,-0.2428586333990097,0.4564390182495117,-0.031923163682222366,0.0,0.0,0.3,0.0,0.0,0.0,0.4,0.0,0.0,0.0,0.0,0.13193182745932078
0.34000033140182495,0,1.6067814826965332,46.06602096557617,-0.02633468061685562,0.2920018434524536,-0.00013756752014160156,0.06238508224487305,-0.027520418167114258,0.2541930377483368,-0.02922380529344082,0.025940749794244766,-0.10573308169841766,0.36027926206588745,0.047961682081222534,0.0,0.0,0.3,0.0,0.0,0.0,0.4,0.0,0.0,0.0,0.0,0.1375314991277818
0.3600003719329834,0,1.487044334411621,46.0711669921875,-0.026928899809718132,0.2923671305179596,0.0004718303680419922,0.06900405883789062,-0.02600407600402832,0.2548947036266327,-0.017372313886880875,0.03512671962380409,-0.008369140326976776,0.3007681369781494,0.11106210947036743,0.0,0.0,0.3,0.0,0.0,0.0,0.4,0.0,0.0,0.0,0.0,0.14349318723548815
0.38000041246414185,0,1.4534282684326172,46.07634353637695,-0.027357151731848717,0.29291832447052,0.0022804737091064453,0.07462620735168457,-0.023305177688598633,0.2561585009098053,-0.009687685407698154,0.04676992446184158,0.015055499970912933,0.24845291674137115,0.1607607901096344,0.0,0.0,0.3,0.0,0.0,0.0,0.4,0.0,0.0,0.0,0.0,0.14984857410564553
0.4000004529953003,0,1.3585214614868164,46.081600189208984,-0.027684353291988373,0.2936900556087494,0.0027551651000976562,0.0788569450378418,-0.01958775520324707,0.25868451595306396,-0.005230985581874847,0.05962972342967987,-0.03970743343234062,0.17344123125076294,0.20344598591327667,0.0,0.0,0.3,0.0,0.0,0.0,0.4,0.0,0.0,0.0,0.0,0.15663286141262725
0.42000049352645874,0,1.3689522743225098,46.08687210083008,-0.02794184908270836,0.2947424054145813,0.001363515853881836,0.08204078674316406,-0.014974832534790039,0.25857749581336975,-0.0029510653112083673,0.07469254732131958,-0.10497023910284042,0.12386049330234528,0.23929552733898163,0.0,0.0,0.3,0.0,0.0,0.0,0.4,0.0,0.0,0.0,0.0,0.16388524615086375
0.4400005340576172,0,1.4243443012237549,46.09213638305664,-0.028152592480182648,0.2961045801639557,-0.0011379718780517578,0.08469557762145996,-0.009678125381469727,0.25621962547302246,-0.0023529701866209507,0.08884869515895844,-0.13615289330482483,0.09348098933696747,0.26579928398132324,0.0,0.0,0.3,0.0,0.0,0.0,0.4,0.0,0.0,0.0,0.0,0.17164947285779064
0.46000057458877563,0,1.4284273386001587,46.09735107421875,-0.028341779485344887,0.29766640067100525,-0.003732919692993164,0.08678388595581055,-0.003908395767211914,0.2542842924594879,-0.003219781443476677,0.09502524137496948,-0.12617792189121246,0.05912856012582779,0.2840362787246704,0.0,0.0,0.3,0.0,0.0,0.0,0.4,0.0,0.0,0.0,0.0,0.17997447622876817
0.4800006151199341,0,1.3617843389511108,46.10255432128906,-0.028535041958093643,0.29920023679733276,-0.005563020706176758,0.0879511833190918,0.0021958351135253906,0.25548264384269714,-0.005248065106570721,0.09004061669111252,-0.08586052805185318,0.008413076400756836,0.29970455169677734,0.0,0.0,0.3,0.0,0.0,0.0,0.4,0.0,0.0,0.0,0.0,0.18891513125681042
0.5000006556510925,0,1.2660682201385498,46.107818603515625,-0.028754526749253273,0.3004656732082367,-0.006181001663208008,0.08777928352355957,0.008580684661865234,0.2613436281681061,-0.008020120672881603,0.07571803033351898,-0.03587516397237778,-0.05128176882863045,0.31675273180007935,0.0,0.0,0.3,0.0,0.0,0.0,0.4,0.0,0.0,0.0,0.0,0.1985331317354659
0.5200003981590271,0,1.1807128190994263,46.11315155029297,-0.029124878346920013,0.3009941875934601,-0.007776498794555664,0.08557462692260742,0.013640642166137695,0.28116005659103394,-0.02335086278617382,0.0004079379141330719,-0.14469869434833527,-0.23116526007652283,0.1388770490884781,0.0,0.0,0.3,0.0,0.0,0.0,0.4,0.0,0.0,0.0,0.0,0.20889802256776707
0.5400001406669617,0,2.3870468139648438,46.118160247802734,-0.029822921380400658,0.301775723695755,-0.007392168045043945,0.0870981216430664,0.01660609245300293,0.21487638354301453,-0.04609380289912224,0.15953436493873596,0.14482635259628296,0.35197368264198303,0.19650140404701233,0.0,0.0,0.3,0.0,0.0,0.0,0.4,0.0,0.0,0.0,0.0,0.22008841707081192
0.5599998831748962,0,2.060863971710205,46.12297439575195,-0.030885031446814537,0.30437541007995605,-0.002652406692504883,0.09225344657897949,0.019794225692749023,0.2356119304895401,-0.06052800267934799,0.13218429684638977,0.19450964033603668,0.19063638150691986,0.11662966758012772,0.0,0.0,0.3,0.0,0.0,0.0,0.4,0.0,0.0,0.0,0.0,0.2321934376690387
0.5799996256828308,0,1.8457731008529663,46.12815475463867,-0.03218882903456688,0.3061333894729614,0.0012958049774169922,0.09438872337341309,0.021567821502685547,0.25407782196998596,-0.07331638783216476,0.09936924278736115,0.16143059730529785,0.07457881420850754,0.0632701963186264,0.0,0.0,0.3,0.0,0.0,0.0,0.4,0.0,0.0,0.0,0.0,0.2453144274394426
0.5999993681907654,0,1.7354674339294434,46.13357162475586,-0.03369821235537529,0.3072596788406372,0.004014730453491211,0.09473347663879395,0.022598743438720703,0.2661932110786438,-0.08371684700250626,0.07545656710863113,0.11904030293226242,0.005395629908889532,0.04007495567202568,0.0,0.0,0.3,0.0,0.0,0.0,0.4,0.0,0.0,0.0,0.0,0.2595669914447933
0.6199991106987,0,1.6550073623657227,46.139156341552734,-0.03537553921341896,0.3079896867275238,0.005678892135620117,0.0940699577331543,0.023370981216430664,0.2741677165031433,-0.09189349412918091,0.060468755662441254,0.0784260705113411,-0.03873718902468681,0.03666819632053375,0.0,0.0,0.3,0.0,0.0,0.0,0.4,0.0,0.0,0.0,0.0,0.2750834413704863
0.6399988532066345,0,1.5913608074188232,46.14485168457031,-0.037192486226558685,0.3085338771343231,0.0068759918212890625,0.0927884578704834,0.0242462158203125,0.28040724992752075,-0.09862299263477325,0.05443833768367767,0.06762072443962097,-0.06722211837768555,0.05008514225482941,0.0,0.0,0.3,0.0,0.0,0.0,0.4,0.0,0.0,0.0,0.0,0.29201573559615873
0.6599985957145691,0,1.5724560022354126,46.15061950683594,-0.03912756219506264,0.30908140540122986,0.008627891540527344,0.09128046035766602,0.025377988815307617,0.28422343730926514,-0.10402679443359375,0.05603428930044174,0.0903269574046135,-0.08078435063362122,0.06744451820850372,0.0,0.0,0.3,0.0,0.0,0.0,0.4,0.0,0.0,0.0,0.0,0.3105390307160247
0.6799983382225037,0,1.66111421585083,46.156429290771484,-0.04115425795316696,0.3097519278526306,0.011725425720214844,0.0901482105255127,0.026613235473632812,0.283622682094574,-0.10803806036710739,0.06065675616264343,0.13479427993297577,-0.06459735333919525,0.07450004667043686,0.0,0.0,0.3,0.0,0.0,0.0,0.4,0.0,0.0,0.0,0.0,0.33085599131065785
0.6999980807304382,0,1.7404751777648926,46.162193298339844,-0.043248631060123444,0.3105205297470093,0.015628576278686523,0.08941054344177246,0.02786111831665039,0.2818514108657837,-0.11091013252735138,0.061897777020931244,0.14567534625530243,-0.058903563767671585,0.07857678085565567,0.0,0.0,0.3,0.0,0.0,0.0,0.4,0.0,0.0,0.0,0.0,0.35320204465634847
0.7199978232383728,0,1.7457460165023804,46.16792678833008,-0.04539418965578079,0.31123068928718567,0.019174575805664062,0.0885918140411377,0.029191970825195312,0.28170302510261536,-0.1134653240442276,0.05497802793979645,0.11861073970794678,-0.07101156562566757,0.08650625497102737,0.0,0.0,0.3,0.0,0.0,0.0,0.4,0.0,0.0,0.0,0.0,0.3778518189690576
0.7399975657463074,0,1.6919418573379517,46.17367172241211,-0.047587037086486816,0.3116745352745056,0.021570920944213867,0.0872342586517334,0.030751466751098633,0.2851787507534027,-0.11648476123809814,0.0392763689160347,0.06908959895372391,-0.0989317074418068,0.09908831864595413,0.0,0.0,0.3,0.0,0.0,0.0,0.4,0.0,0.0,0.0,0.0,0.40512707165842715
0.7599973082542419,0,1.604173183441162,46.17951583862305,-0.04983457922935486,0.31167590618133545,0.022412538528442383,0.0848684310913086,0.03270149230957031,0.29401519894599915,-0.12067526578903198,0.018450971692800522,0.008950481191277504,-0.14229023456573486,0.11697867512702942,0.0,0.0,0.3,0.0,0.0,0.0,0.4,0.0,0.0,0.0,0.0,0.4354065032142112
0.7799970507621765,0,2.0408263206481934,46.18550109863281,-0.05201635882258415,0.31087934970855713,0.021272897720336914,0.08111858367919922,0.03621697425842285,0.3057425618171692,-0.1114388108253479,-0.07314343750476837,-0.5666075348854065,-0.09826333075761795,0.30831822752952576,0.0,0.0,0.3,0.0,0.0,0.0,0.4,0.0,0.0,0.0,0.0,0.46913796989409695
0.7999967932701111,0,1.3273667097091675,46.191349029541016,-0.053720589727163315,0.3089761435985565,0.017097949981689453,0.08152985572814941,0.04319596290588379,0.2820793390274048,-0.0823969617486,-0.05522767826914787,-0.04205331951379776,0.08554627746343613,0.37852248549461365,0.0,0.0,0.3,0.0,0.0,0.0,0.4,0.0,0.0,0.0,0.0,0.506853763898984
0.8199965357780457,0,1.2389024496078491,46.19696044921875,-0.055042218416929245,0.30738285183906555,0.017257213592529297,0.08212161064147949,0.0511775016784668,0.27991190552711487,-0.06551322340965271,-0.04813714325428009,-0.08799094706773758,0.027580849826335907,0.4261646866798401,0.0,0.0,0.3,0.0,0.0,0.0,0.4,0.0,0.0,0.0,0.0,0.5491898359794698
0.8399962782859802,0,1.1734206676483154,46.20255661010742,-0.05602622032165527,0.30587711930274963,0.01787424087524414,0.08150172233581543,0.06011772155761719,0.2799318730831146,-0.05087696760892868,-0.04259873181581497,-0.033365942537784576,-0.01858747936785221,0.47621995210647583,0.0,0.0,0.3,0.0,0.0,0.0,0.4,0.0,0.0,0.0,0.0,0.5969101092611498
0.8599960207939148,0,1.1502854824066162,46.20813751220703,-0.056726936250925064,0.3045162260532379,0.019589900970458984,0.08042502403259277,0.07006549835205078,0.2784840166568756,-0.03994040936231613,-0.035144880414009094,-0.03226638585329056,-0.02901371195912361,0.5261000394821167,0.0,0.0,0.3,0.0,0.0,0.0,0.4,0.0,0.0,0.0,0.0,0.6509373962770281
0.8799957633018494,0,1.1223750114440918,46.21366882324219,-0.05722205340862274,0.3034060597419739,0.020363330841064453,0.07944822311401367,0.08105015754699707,0.2761227488517761,-0.03289971873164177,-0.02267776057124138,-0.0962616428732872,-0.022391460835933685,0.5752890110015869,0.0,0.0,0.3,0.0,0.0,0.0,0.4,0.0,0.0,0.0,0.0,0.7
0.8999955058097839,0,1.0897927284240723,46.2192268371582,-0.057582221925258636,0.3026643395423889,0.018132448196411133,0.07849526405334473,0.09320259094238281,0.2738938629627228,-0.028812754899263382,-0.004604281857609749,-0.20842787623405457,-0.03135984018445015,0.6304412484169006,0.0,0.0,0.3,0.0,0.0,0.0,0.4,0.0,0.0,0.0,0.0,0.7
0.9199952483177185,0,1.1805781126022339,46.22465896606445,-0.05783706530928612,0.30241867899894714,0.013216495513916016,0.07790303230285645,0.10651421546936035,0.26938292384147644,-0.026150863617658615,0.018285218626260757,-0.297016441822052,-0.0173054076731205,0.6790786981582642,0.0,0.0,0.3,0.0,0.0,0.0,0.4,0.0,0.0,0.0,0.0,0.7
0.9399949908256531,0,1.2602829933166504,46.23005294799805,-0.05800136551260948,0.3026948571205139,0.007056474685668945,0.07795572280883789,0.12067198753356934,0.2645339071750641,-0.024943824857473373,0.039975158870220184,-0.3232981860637665,-0.0015808655880391598,0.7109967470169067,0.0,0.0,0.3,0.0,0.0,0.0,0.4,0.0,0.0,0.0,0.0,0.7
0.9599947333335876,0,1.2383943796157837,46.23540115356445,-0.05810053274035454,0.3033384382724762,0.0012269020080566406,0.07837939262390137,0.13540434837341309,0.26119598746299744,-0.025652362033724785,0.0518871545791626,-0.28530463576316833,0.002130350563675165,0.7343651056289673,0.0,0.0,0.3,0.0,0.0,0.0,0.4,0.0,0.0,0.0,0.0,0.7
0.9799944758415222,0,2.484102487564087,46.240745544433594,-0.05816778168082237,0.3040681779384613,-0.0031044483184814453,0.07865405082702637,0.15060758590698242,0.26194697618484497,-0.0283234640955925,0.0505228191614151,-0.21157206594944,-0.015859244391322136,0.7585763335227966,0.0,0.0,0.3,0.0,0.0,0.0,0.4,0.0,0.0,0.0,0.0,0.21193087560178084
0.9999942183494568,0,2.2530369758605957,46.24613952636719,-0.05822918564081192,0.3046044707298279,-0.0053179264068603516,0.07824373245239258,0.16613483428955078,0.26808473467826843,-0.03313284367322922,0.03872197866439819,-0.10980375111103058,-0.05080825835466385,0.7575202584266663,0.0,0.0,0.3,0.0,0.0,0.0,0.4,0.0,0.0,0.0,0.0,0.22524943957047547
1.0199940204620361,0,2.0131747722625732,46.25175094604492,-0.05829709395766258,0.30473050475120544,-0.0052530765533447266,0.07677435874938965,0.18127751350402832,0.2801660895347595,-0.03969067707657814,0.019463226199150085,-0.017247885465621948,-0.09416748583316803,0.7456865310668945,0.0,0.0,0.3,0.0,0.0,0.0,0.4,0.0,0.0,0.0,0.0,0.23931705196952202
1.0399937629699707,0,1.5621144771575928,46.25747299194336,-0.05849916860461235,0.3040127456188202,-0.003900766372680664,0.07466864585876465,0.19424796104431152,0.2794256806373596,-0.058626726269721985,-0.07022782415151596,0.27574899792671204,-0.02369936928153038,0.5248568058013916,0.0,0.0,0.3,0.0,0.0,0.0,0.4,0.0,0.0,0.0,0.0,0.2541435048006878
1.0599935054779053,0,1.233986735343933,46.263118743896484,-0.05900052189826965,0.3021126985549927,0.0012662410736083984,0.07468461990356445,0.20321178436279297,0.2764040231704712,-0.07780160754919052,-0.0671667754650116,0.1930607408285141,0.017918365076184273,0.3915395736694336,0.0,0.0,0.3,0.0,0.0,0.0,0.4,0.0,0.0,0.0,0.0,0.269729783708806
1.0799932479858398,0,1.0942740440368652,46.26888656616211,-0.05971628427505493,0.30033808946609497,0.0058362483978271484,0.07381129264831543,0.20993566513061523,0.28149309754371643,-0.09312329441308975,-0.056164540350437164,0.19069057703018188,-0.05450378730893135,0.29401636123657227,0.0,0.0,0.3,0.0,0.0,0.0,0.4,0.0,0.0,0.0,0.0,0.2860657204108067
1.0999929904937744,0,1.0222336053848267,46.27482604980469,-0.06061585620045662,0.29874345660209656,0.009876489639282227,0.07150435447692871,0.21489429473876953,0.28564584255218506,-0.10705536603927612,-0.045790426433086395,0.1560007631778717,-0.11177533864974976,0.2191867083311081,0.0,0.0,0.3,0.0,0.0,0.0,0.4,0.0,0.0,0.0,0.0,0.3031272744267433
1.119992733001709,0,1.0006006956100464,46.28084182739258,-0.06170617789030075,0.29738524556159973,0.012836933135986328,0.06860089302062988,0.21865272521972656,0.28621238470077515,-0.11930733919143677,-0.03324074298143387,0.11870083212852478,-0.12794367969036102,0.17569594085216522,0.0,0.0,0.3,0.0,0.0,0.0,0.4,0.0,0.0,0.0,0.0,0.32087343327042767
1.1399924755096436,0,0.9918701648712158,46.286964416503906,-0.06298970431089401,0.29640012979507446,0.015129804611206055,0.06583642959594727,0.2219693660736084,0.2851219177246094,-0.1300518661737442,-0.014264540746808052,0.10566356033086777,-0.11731173098087311,0.16767673194408417,0.0,0.0,0.3,0.0,0.0,0.0,0.4,0.0,0.0,0.0,0.0,0.3392427394642674
1.1599922180175781,0,1.0263656377792358,46.2930793762207,-0.06445866078138351,0.29598087072372437,0.017846345901489258,0.06369733810424805,0.225372314453125,0.28174903988838196,-0.13914433121681213,0.013938011601567268,0.12936106324195862,-0.09057208895683289,0.17868994176387787,0.0,0.0,0.3,0.0,0.0,0.0,0.4,0.0,0.0,0.0,0.0,0.3581494805254738
1.1799919605255127,0,1.1978838443756104,46.29916000366211,-0.06609665602445602,0.2962101995944977,0.022154569625854492,0.06264448165893555,0.22869253158569336,0.2748226523399353,-0.1467026025056839,0.04222451150417328,0.1786206215620041,-0.0458361841738224,0.1728421449661255,0.0,0.0,0.3,0.0,0.0,0.0,0.4,0.0,0.0,0.0,0.0,0.3774796161674545
1.1999917030334473,0,1.3726718425750732,46.30514907836914,-0.06788874417543411,0.2969537377357483,0.02741217613220215,0.0624394416809082,0.23171353340148926,0.26774027943611145,-0.15333899855613708,0.06149401143193245,0.19131524860858917,-0.020695731043815613,0.15951946377754211,0.0,0.0,0.3,0.0,0.0,0.0,0.4,0.0,0.0,0.0,0.0,0.3970865668027767
1.2199914455413818,0,1.4585068225860596,46.311065673828125,-0.0698210746049881,0.29794856905937195,0.032288312911987305,0.06245732307434082,0.23449420928955078,0.2624855637550354,-0.15968522429466248,0.06814715266227722,0.16436266899108887,-0.02087096869945526,0.15173067152500153,0.0,0.0,0.3,0.0,0.0,0.0,0.4,0.0,0.0,0.0,0.0,0.4167870497113485
1.2399911880493164,0,1.4460290670394897,46.31697082519531,-0.07188384234905243,0.2989078462123871,0.035817623138427734,0.06209230422973633,0.23724126815795898,0.2606567144393921,-0.1667431741952896,0.06272318959236145,0.10839799046516418,-0.04430963471531868,0.1530093103647232,0.0,0.0,0.3,0.0,0.0,0.0,0.4,0.0,0.0,0.0,0.0,0.4363572232877534
1.259990930557251,0,1.3709770441055298,46.32294845581055,-0.07407554984092712,0.299580842256546,0.03744959831237793,0.06078624725341797,0.2401742935180664,0.2635684907436371,-0.17538411915302277,0.047908879816532135,0.03397385776042938,-0.08893634378910065,0.1617070883512497,0.0,0.0,0.3,0.0,0.0,0.0,0.4,0.0,0.0,0.0,0.0,0.4555294828231617
1.2799906730651855,0,1.2691900730133057,46.328895568847656,-0.07625879347324371,0.29957666993141174,0.0368504524230957,0.05829572677612305,0.24467754364013672,0.268162339925766,-0.16924014687538147,-0.04668866842985153,-0.3960946202278137,-0.0412566140294075,0.38400954008102417,0.0,0.0,0.3,0.0,0.0,0.0,0.4,0.0,0.0,0.0,0.0,0.47399033753885333
1.2999904155731201,0,1.0932140350341797,46.334625244140625,-0.07807424664497375,0.29827550053596497,0.036055564880371094,0.05817270278930664,0.25359272956848145,0.25055351853370667,-0.1400618702173233,-0.03007744811475277,0.1095680221915245,0.012872639112174511,0.4917924404144287,0.0,0.0,0.3,0.0,0.0,0.0,0.4,0.0,0.0,0.0,0.0,0.4913798784859444
1.3199901580810547,0,0.9798412322998047,46.34018325805664,-0.07940874248743057,0.29727667570114136,0.03917527198791504,0.057535409927368164,0.26367950439453125,0.25490063428878784,-0.11591989547014236,-0.021495051681995392,0.033489663153886795,0.0019074976444244385,0.5217474699020386,0.0,0.0,0.3,0.0,0.0,0.0,0.4,0.0,0.0,0.0,0.0,0.5072934065357907
1.3399899005889893,0,0.9589933156967163,46.345767974853516,-0.08022373914718628,0.29638993740081787,0.041702985763549805,0.056711435317993164,0.27432894706726074,0.2616139054298401,-0.0951227992773056,-0.017208972945809364,0.02854420244693756,0.004420468583703041,0.5524250268936157,0.0,0.0,0.3,0.0,0.0,0.0,0.4,0.0,0.0,0.0,0.0,0.5212858108799944
1.3599896430969238,0,0.9363495707511902,46.35138702392578,-0.08061899244785309,0.29564595222473145,0.04402351379394531,0.056226491928100586,0.28557753562927246,0.2653666138648987,-0.08015698939561844,-0.010066388174891472,-0.023611610755324364,0.02809084951877594,0.5795081853866577,0.0,0.0,0.3,0.0,0.0,0.0,0.4,0.0,0.0,0.0,0.0,0.5328792501439632
1.3799893856048584,0,0.9316881895065308,46.35698699951172,-0.08072289824485779,0.29516735672950745,0.044165611267089844,0.05639839172363281,0.2973654270172119,0.2667759954929352,-0.07059632241725922,0.003234333358705044,-0.12996694445610046,0.055399440228939056,0.6010621786117554,0.0,0.0,0.3,0.0,0.0,0.0,0.4,0.0,0.0,0.0,0.0,0.5415745690880579
1.399989128112793,0,1.0240693092346191,46.362586975097656,-0.08063492178916931,0.2950778603553772,0.04025578498840332,0.05701565742492676,0.3097419738769531,0.2672659158706665,-0.06469865143299103,0.021744409576058388,-0.2770087718963623,0.06453387439250946,0.6263524889945984,0.0,0.0,0.3,0.0,0.0,0.0,0.4,0.0,0.0,0.0,0.0,0.546866666887683
1.4199888706207275,0,1.1913073062896729,46.3681640625,-0.08040109276771545,0.29549843072891235,0.03329324722290039,0.058205604553222656,0.32266950607299805,0.26573193073272705,-0.060496676713228226,0.04593674838542938,-0.3701499104499817,0.08071269094944,0.6464434862136841,0.0,0.0,0.3,0.0,0.0,0.0,0.4,0.0,0.0,0.0,0.0,0.5482637113373621
1.439988613128662,0,1.2588527202606201,46.37369155883789,-0.08004450798034668,0.2964460253715515,0.025412321090698242,0.06012868881225586,0.3359568119049072,0.26372361183166504,-0.057850711047649384,0.0675860196352005,-0.37665778398513794,0.09970300644636154,0.6575458645820618,0.0,0.0,0.3,0.0,0.0,0.0,0.4,0.0,0.0,0.0,0.0,0.5453096769397815
1.4599883556365967,0,1.1915614604949951,46.379207611083984,-0.07959730178117752,0.2977290749549866,0.018308162689208984,0.062335968017578125,0.34946513175964355,0.26360592246055603,-0.057927992194890976,0.07779659330844879,-0.32183435559272766,0.09500403702259064,0.6662476658821106,0.0,0.0,0.3,0.0,0.0,0.0,0.4,0.0,0.0,0.0,0.0,0.537609205727368
1.4799880981445312,0,1.0563733577728271,46.384735107421875,-0.07909528911113739,0.2990472912788391,0.013114213943481445,0.06420731544494629,0.3631582260131836,0.26692909002304077,-0.06079911068081856,0.07430533319711685,-0.22622111439704895,0.06720826029777527,0.676937997341156,0.0,0.0,0.3,0.0,0.0,0.0,0.4,0.0,0.0,0.0,0.0,0.5248533037965141
1.4999878406524658,0,0.9659810066223145,46.39039611816406,-0.07856272906064987,0.30011868476867676,0.010308980941772461,0.06526041030883789,0.377091646194458,0.2749529778957367,-0.0660938173532486,0.060325466096401215,-0.12129779905080795,0.02775506302714348,0.6943672895431519,0.0,0.0,0.3,0.0,0.0,0.0,0.4,0.0,0.0,0.0,0.0,0.506843970008736
1.5199875831604004,0,0.9571797847747803,46.39630126953125,-0.07800372689962387,0.3007413148880005,0.0096893310546875,0.0650641918182373,0.39138364791870117,0.288950651884079,-0.07377485930919647,0.040479473769664764,-0.031093621626496315,-0.02555937133729458,0.7209381461143494,0.0,0.0,0.3,0.0,0.0,0.0,0.4,0.0,0.0,0.0,0.0,0.4835155914943738
1.539987325668335,0,0.7257501482963562,46.40241241455078,-0.07753501087427139,0.3004065155982971,0.009737253189086914,0.0635061264038086,0.40422844886779785,0.2910376191139221,-0.09241710603237152,-0.06556910276412964,-0.013075591996312141,-0.09371564537286758,0.5172222852706909,0.0,0.0,0.3,0.0,0.0,0.0,0.4,0.0,0.0,0.0,0.0,0.45495091101752766
1.5599870681762695,0,0.8048508167266846,46.408447265625,-0.07727891206741333,0.29860037565231323,0.011541366577148438,0.06194567680358887,0.4133644104003906,0.28354284167289734,-0.10416752099990845,-0.06252112984657288,0.100741907954216,-0.04383733868598938,0.4185647964477539,0.0,0.0,0.3,0.0,0.0,0.0,0.4,0.0,0.0,0.0,0.0,0.42138962361925947
1.579986810684204,0,0.7848830819129944,46.41455078125,-0.07716863602399826,0.29696279764175415,0.014531612396240234,0.06014204025268555,0.42102551460266113,0.28568851947784424,-0.11640141904354095,-0.05032753944396973,0.10808096826076508,-0.08457586169242859,0.3547922670841217,0.0,0.0,0.3,0.0,0.0,0.0,0.4,0.0,0.0,0.0,0.0,0.38322819868583546
1.5999865531921387,0,0.7452565431594849,46.4207878112793,-0.0771816298365593,0.29553914070129395,0.017102956771850586,0.05742955207824707,0.42737793922424316,0.28777751326560974,-0.12802590429782867,-0.03944399952888489,0.09200622886419296,-0.12156330049037933,0.29397615790367126,0.0,0.0,0.3,0.0,0.0,0.0,0.4,0.0,0.0,0.0,0.0,0.3410102991110121
1.6199862957000732,0,0.6951574087142944,46.427154541015625,-0.07733311504125595,0.2943674921989441,0.018973588943481445,0.05443096160888672,0.43262338638305664,0.28669366240501404,-0.13855084776878357,-0.026790060102939606,0.064235620200634,-0.12669944763183594,0.24825358390808105,0.0,0.0,0.3,0.0,0.0,0.0,0.4,0.0,0.0,0.0,0.0,0.2954080821287498
1.6399860382080078,0,0.6629925966262817,46.43354797363281,-0.0776393935084343,0.29358670115470886,0.02029705047607422,0.05179166793823242,0.4372701644897461,0.28373628854751587,-0.1478099524974823,-0.006695803254842758,0.06312818825244904,-0.10481355339288712,0.22753272950649261,0.0,0.0,0.3,0.0,0.0,0.0,0.4,0.0,0.0,0.0,0.0,0.24719558501531266
1.6599857807159424,0,0.6942070722579956,46.43996810913086,-0.07810170948505402,0.29338186979293823,0.022127628326416016,0.04997682571411133,0.441633939743042,0.2793293595314026,-0.15573516488075256,0.02101455256342888,0.09691154211759567,-0.07087595015764236,0.2147912085056305,0.0,0.0,0.3,0.0,0.0,0.0,0.4,0.0,0.0,0.0,0.0,0.19721618609183708
1.679985523223877,0,0.8357897996902466,46.44635009765625,-0.07871674001216888,0.2938259541988373,0.025823116302490234,0.04938220977783203,0.44534730911254883,0.2715601921081543,-0.16227686405181885,0.049830324947834015,0.15689441561698914,-0.020331842824816704,0.1774221658706665,0.0,0.0,0.3,0.0,0.0,0.0,0.4,0.0,0.0,0.0,0.0,0.1463466734068142
1.6999852657318115,0,0.9823418259620667,46.452674865722656,-0.07948141545057297,0.294796884059906,0.030802011489868164,0.04974985122680664,0.4480736255645752,0.2639940679073334,-0.16821245849132538,0.06991196423768997,0.1861090064048767,0.0085488585755229,0.12666091322898865,0.0,0.0,0.3,0.0,0.0,0.0,0.4,0.0,0.0,0.0,0.0,0.09546068187444989
1.719985008239746,0,1.0332882404327393,46.45894241333008,-0.08038323372602463,0.2960316240787506,0.03565263748168945,0.05036759376525879,0.4497718811035156,0.25838059186935425,-0.17397616803646088,0.0775180459022522,0.1677696704864502,0.006383509375154972,0.0770292580127716,0.0,0.0,0.3,0.0,0.0,0.0,0.4,0.0,0.0,0.0,0.0,0.04539416230529314
1.7399847507476807,0,1.0074825286865234,46.46516036987305,-0.08140566945075989,0.2972426414489746,0.03930091857910156,0.05057573318481445,0.45056843757629395,0.25619223713874817,-0.18043503165245056,0.07259807735681534,0.12400217354297638,-0.018270300701260567,0.03287411853671074,0.0,0.0,0.3,0.0,0.0,0.0,0.4,0.0,0.0,0.0,0.0,-0.003084836468613019
1.7599844932556152,0,0.926924467086792,46.471473693847656,-0.08253410458564758,0.2981746792793274,0.04122352600097656,0.049880027770996094,0.4506196975708008,0.2586638033390045,-0.18855543434619904,0.058317169547080994,0.05885222926735878,-0.06368724256753922,-0.006345877889543772,0.0,0.0,0.3,0.0,0.0,0.0,0.4,0.0,0.0,0.0,0.0,-0.04930037841436683
1.7799842357635498,0,1.2433907985687256,46.47776794433594,-0.08364512771368027,0.29836493730545044,0.041344404220581055,0.04791450500488281,0.4512166976928711,0.2648930549621582,-0.18427112698554993,-0.04929514601826668,-0.21907494962215424,-0.08096921443939209,0.18467411398887634,0.0,0.0,0.3,0.0,0.0,0.0,0.4,0.0,0.0,0.0,0.0,-0.09268584313974629
1.7999839782714844,0,1.6492595672607422,46.483734130859375,-0.08442604541778564,0.29710179567337036,0.041553497314453125,0.04888772964477539,0.45525479316711426,0.2456505447626114,-0.14928589761257172,-0.02768280729651451,0.1095430999994278,0.12822069227695465,0.2070225179195404,0.0,0.0,0.3,0.0,0.0,0.0,0.4,0.0,0.0,0.0,0.0,-0.13279381993757655
1.819983720779419,0,1.5580554008483887,46.48941421508789,-0.08468645066022873,0.29622605443000793,0.04395771026611328,0.05068325996398926,0.4590110778808594,0.2531530559062958,-0.12352745980024338,-0.02003922313451767,0.039982035756111145,0.09646105021238327,0.17846262454986572,0.0,0.0,0.3,0.0,0.0,0.0,0.4,0.0,0.0,0.0,0.0,-0.16929901681313422
1.8399834632873535,0,1.5407296419143677,46.49506759643555,-0.08441086858510971,0.29543977975845337,0.04615640640258789,0.051787614822387695,0.4621572494506836,0.2616419792175293,-0.1017695963382721,-0.014992866665124893,0.04486020281910896,0.0707564428448677,0.15024153888225555,0.0,0.0,0.3,0.0,0.0,0.0,0.4,0.0,0.0,0.0,0.0,-0.20199500023601377
1.859983205795288,0,1.5465742349624634,46.500633239746094,-0.08371218293905258,0.2947818636894226,0.04833197593688965,0.05286383628845215,0.4647800922393799,0.2666560411453247,-0.08525491505861282,-0.008501149713993073,0.004993153270334005,0.07692994922399521,0.12391256541013718,0.0,0.0,0.3,0.0,0.0,0.0,0.4,0.0,0.0,0.0,0.0,-0.23078591185942837
1.8799829483032227,0,1.5352044105529785,46.50614929199219,-0.08272222429513931,0.2943580150604248,0.04863905906677246,0.05431056022644043,0.4669015407562256,0.26918700337409973,-0.07403664290904999,0.004071881994605064,-0.0865948423743248,0.08585478365421295,0.09439091384410858,0.0,0.0,0.3,0.0,0.0,0.0,0.4,0.0,0.0,0.0,0.0,-0.2556744746193381
1.8999826908111572,0,1.582216501235962,46.51163101196289,-0.08154252171516418,0.29429733753204346,0.04513382911682129,0.055870771408081055,0.46855998039245605,0.2707248628139496,-0.06620131433010101,0.022100599482655525,-0.22702163457870483,0.08123729377985,0.06796687841415405,0.0,0.0,0.3,0.0,0.0,0.0,0.4,0.0,0.0,0.0,0.0,-0.2767476198269724
1.9199824333190918,0,1.6787405014038086,46.51707458496094,-0.0802258551120758,0.2947121858596802,0.03876519203186035,0.05780744552612305,0.46980929374694824,0.270013689994812,-0.059965893626213074,0.04455042630434036,-0.31017380952835083,0.08801611512899399,0.0423731803894043,0.0,0.0,0.3,0.0,0.0,0.0,0.4,0.0,0.0,0.0,0.0,-0.2941609695002415
1.9399821758270264,0,1.6812305450439453,46.5224494934082,-0.07880803942680359,0.29560038447380066,0.03169107437133789,0.06029176712036133,0.4706401824951172,0.2683032751083374,-0.05508260428905487,0.06399038434028625,-0.3079964220523834,0.10457004606723785,0.01803446002304554,0.0,0.0,0.3,0.0,0.0,0.0,0.4,0.0,0.0,0.0,0.0,-0.308123230519464
1.959981918334961,0,2.3975343704223633,46.52775573730469,-0.07731921970844269,0.29679498076438904,0.02537393569946289,0.06291079521179199,0.4710350036621094,0.2682848870754242,-0.052601635456085205,0.07382320612668991,-0.2555527091026306,0.09529858827590942,-0.004612790420651436,0.0,0.0,0.3,0.0,0.0,0.0,0.4,0.0,0.0,0.0,0.0,-0.5383057012629912
1.9799816608428955,0,2.207108497619629,46.53310012817383,-0.07578408718109131,0.29802995920181274,0.020669937133789062,0.06496334075927734,0.47095298767089844,0.2716640532016754,-0.052658483386039734,0.07147879898548126,-0.17316259443759918,0.05794244632124901,-0.031645696610212326,0.0,0.0,0.3,0.0,0.0,0.0,0.4,0.0,0.0,0.0,0.0,-0.5608603505135799
1.99998140335083,0,2.0099992752075195,46.538536071777344,-0.07421133667230606,0.299049437046051,0.017856836318969727,0.06594109535217285,0.4701731204986572,0.2795808017253876,-0.05474511533975601,0.05974510312080383,-0.08846219629049301,0.009075701236724854,-0.06346283853054047,0.0,0.0,0.3,0.0,0.0,0.0,0.4,0.0,0.0,0.0,0.0,-0.5838346537513524
2.01998233795166,0,1.853272795677185,46.54416275024414,-0.07258845120668411,0.29966431856155396,0.01668071746826172,0.06547331809997559,0.4686603546142578,0.2935275733470917,-0.05852920934557915,0.04203658923506737,-0.019500363618135452,-0.05379132926464081,-0.09277893602848053,0.0,0.0,0.3,0.0,0.0,0.0,0.4,0.0,0.0,0.0,0.0,-0.6070943491272752
2.0399832725524902,0,1.2857778072357178,46.55001449584961,-0.07104339450597763,0.2993873655796051,0.015092134475708008,0.06327223777770996,0.4655895233154297,0.2989502549171448,-0.07456699758768082,-0.05057595670223236,-0.06419776380062103,-0.1310020238161087,-0.26073920726776123,0.0,0.0,0.3,0.0,0.0,0.0,0.4,0.0,0.0,0.0,0.0,-0.6304724276024835
2.0599842071533203,0,1.0976024866104126,46.55587387084961,-0.06976597756147385,0.2979326546192169,0.015325784683227539,0.06143617630004883,0.45937085151672363,0.291320264339447,-0.0850469097495079,-0.042997099459171295,0.11163731664419174,-0.05603088065981865,-0.35618484020233154,0.0,0.0,0.3,0.0,0.0,0.0,0.4,0.0,0.0,0.0,0.0,-0.6537648224080685
2.0799851417541504,0,0.9204316735267639,46.56181335449219,-0.06869713962078094,0.29670482873916626,0.017631053924560547,0.0597383975982666,0.45117735862731934,0.2932734191417694,-0.09547427296638489,-0.029224654659628868,0.13975754380226135,-0.08586828410625458,-0.4564361870288849,0.0,0.0,0.3,0.0,0.0,0.0,0.4,0.0,0.0,0.0,0.0,-0.6767261108863757
2.0999860763549805,0,0.7863069176673889,46.56789779663086,-0.06779119372367859,0.2957264184951782,0.019995450973510742,0.057290077209472656,0.4410207271575928,0.2960452139377594,-0.10426683723926544,-0.017087509855628014,0.14500415325164795,-0.120309017598629,-0.548547625541687,0.0,0.0,0.3,0.0,0.0,0.0,0.4,0.0,0.0,0.0,0.0,-0.6990654391192255
2.1199870109558105,0,0.6914064884185791,46.574100494384766,-0.06705072522163391,0.295031875371933,0.02218031883239746,0.05466341972351074,0.429166316986084,0.2965814769268036,-0.11140726506710052,-0.0032904483377933502,0.14004454016685486,-0.12048733234405518,-0.6239476203918457,0.0,0.0,0.3,0.0,0.0,0.0,0.4,0.0,0.0,0.0,0.0,-0.7
2.1399879455566406,0,0.6565139293670654,46.58034133911133,-0.06647703796625137,0.2946990430355072,0.02419447898864746,0.052492380142211914,0.4159371852874756,0.2959245443344116,-0.11665663123130798,0.013487448915839195,0.1367780864238739,-0.09888027608394623,-0.6828926205635071,0.0,0.0,0.3,0.0,0.0,0.0,0.4,0.0,0.0,0.0,0.0,-0.7
2.1599888801574707,0,0.6860739588737488,46.58660125732422,-0.06605822592973709,0.29481759667396545,0.026459455490112305,0.05122065544128418,0.40157413482666016,0.2943868339061737,-0.11991389095783234,0.03412184119224548,0.14585889875888824,-0.06257645785808563,-0.7315453886985779,0.0,0.0,0.3,0.0,0.0,0.0,0.4,0.0,0.0,0.0,0.0,-0.7
2.179989814758301,0,0.8442289233207703,46.59284210205078,-0.0657825842499733,0.2954716980457306,0.030036211013793945,0.051247596740722656,0.38631772994995117,0.2904238998889923,-0.12076135724782944,0.05822371318936348,0.19349831342697144,-0.008276298642158508,-0.7688016891479492,0.0,0.0,0.3,0.0,0.0,0.0,0.4,0.0,0.0,0.0,0.0,-0.7
2.199990749359131,0,0.9980313777923584,46.59903335571289,-0.06563019752502441,0.29659444093704224,0.034538984298706055,0.052436113357543945,0.3704054355621338,0.28682640194892883,-0.11987213790416718,0.07593805342912674,0.20711827278137207,0.026787960901856422,-0.7966516017913818,0.0,0.0,0.3,0.0,0.0,0.0,0.4,0.0,0.0,0.0,0.0,-0.7
2.219991683959961,0,1.0347561836242676,46.60513687133789,-0.06556694209575653,0.2979271113872528,0.038420915603637695,0.054131507873535156,0.35399818420410156,0.2854686677455902,-0.11810608208179474,0.08015559613704681,0.16410700976848602,0.033214569091796875,-0.819098174571991,0.0,0.0,0.3,0.0,0.0,0.0,0.4,0.0,0.0,0.0,0.0,-0.7
2.239992618560791,0,0.9866679906845093,46.611263275146484,-0.06555729359388351,0.29915809631347656,0.040407657623291016,0.055663347244262695,0.3371446132659912,0.2881261110305786,-0.11659781634807587,0.07110370695590973,0.08287527412176132,0.015020955353975296,-0.8432567715644836,0.0,0.0,0.3,0.0,0.0,0.0,0.4,0.0,0.0,0.0,0.0,-0.7
2.259993553161621,0,0.9348853230476379,46.61748504638672,-0.06557417660951614,0.30003541707992554,0.03997063636779785,0.05645465850830078,0.31978297233581543,0.29618391394615173,-0.11614635586738586,0.05361410602927208,-0.004537701606750488,-0.019239936023950577,-0.8739668130874634,0.0,0.0,0.3,0.0,0.0,0.0,0.4,0.0,0.0,0.0,0.0,-0.7
2.279994487762451,0,0.7729771733283997,46.62374496459961,-0.065555140376091,0.3001147508621216,0.03667306900024414,0.05668139457702637,0.3041229248046875,0.2988503873348236,-0.10691878944635391,-0.07939208298921585,-0.08170539140701294,-0.1124369278550148,-0.6643228530883789,0.0,0.0,0.3,0.0,0.0,0.0,0.4,0.0,0.0,0.0,0.0,-0.7
2.2999954223632812,0,2.044138193130493,46.62952423095703,-0.0652298703789711,0.29872027039527893,0.03689885139465332,0.06159615516662598,0.29147911071777344,0.2704315483570099,-0.06634241342544556,-0.029813967645168304,0.21437150239944458,0.38233035802841187,-0.6719593405723572,0.0,0.0,0.3,0.0,0.0,0.0,0.4,0.0,0.0,0.0,0.0,-0.7
2.3199963569641113,0,1.620039701461792,46.6349983215332,-0.06448403745889664,0.29788437485694885,0.03798508644104004,0.06827044486999512,0.2787454128265381,0.2746015787124634,-0.04605509340763092,-0.021903298795223236,0.04697076603770256,0.265256404876709,-0.6162564754486084,0.0,0.0,0.3,0.0,0.0,0.0,0.4,0.0,0.0,0.0,0.0,-0.7
2.3399972915649414,0,1.6047955751419067,46.64044952392578,-0.06341495364904404,0.29704996943473816,0.039330244064331055,0.0729680061340332,0.2670912742614746,0.27799004316329956,-0.026882005855441093,-0.019367359578609467,0.10020644962787628,0.19275760650634766,-0.5659263730049133,0.0,0.0,0.3,0.0,0.0,0.0,0.4,0.0,0.0,0.0,0.0,-0.7
2.3599982261657715,0,1.6572341918945312,46.64582824707031,-0.062098655849695206,0.2962634265422821,0.04219698905944824,0.0765993595123291,0.25629472732543945,0.2775897979736328,-0.01259373128414154,-0.014166871085762978,0.11326558887958527,0.14373056590557098,-0.5315849184989929,0.0,0.0,0.3,0.0,0.0,0.0,0.4,0.0,0.0,0.0,0.0,-0.7
2.3799991607666016,0,1.6164381504058838,46.65116882324219,-0.060636211186647415,0.29565900564193726,0.044332265853881836,0.07958126068115234,0.2458934783935547,0.27513355016708374,-0.0028887884691357613,-0.0022985730320215225,0.05286000296473503,0.11209218949079514,-0.522280752658844,0.0,0.0,0.3,0.0,0.0,0.0,0.4,0.0,0.0,0.0,0.0,-0.6744730655492731
2.4000000953674316,0,1.4857639074325562,46.65644836425781,-0.059096142649650574,0.2954511344432831,0.04322457313537598,0.08178925514221191,0.2353191375732422,0.27246585488319397,0.003979703411459923,0.020570360124111176,-0.08516645431518555,0.06407958269119263,-0.5355831384658813,0.0,0.0,0.3,0.0,0.0,0.0,0.4,0.0,0.0,0.0,0.0,-0.6258915079106796
2.4200010299682617,0,1.5075340270996094,46.661659240722656,-0.057514041662216187,0.29580721259117126,0.03869462013244629,0.08347392082214355,0.22469425201416016,0.26684191823005676,0.010147446766495705,0.04804719239473343,-0.20240265130996704,0.03215029835700989,-0.532799243927002,0.0,0.0,0.3,0.0,0.0,0.0,0.4,0.0,0.0,0.0,0.0,-0.5689356313686158
2.440001964569092,0,1.548156976699829,46.66675567626953,-0.05590786039829254,0.29668331146240234,0.03231525421142578,0.08483290672302246,0.2144911289215088,0.2596730589866638,0.01596439816057682,0.06906949728727341,-0.2506014406681061,0.014261000789701939,-0.5072776079177856,0.0,0.0,0.3,0.0,0.0,0.0,0.4,0.0,0.0,0.0,0.0,-0.503722055159934
2.460002899169922,0,1.5111610889434814,46.67170333862305,-0.05428306758403778,0.29787778854370117,0.025517702102661133,0.08561158180236816,0.20496082305908203,0.2539903521537781,0.020878132432699203,0.07947821915149689,-0.2528965473175049,-0.020159315317869186,-0.4720747172832489,0.0,0.0,0.3,0.0,0.0,0.0,0.4,0.0,0.0,0.0,0.0,-0.4305645934371521
2.480003833770752,0,1.396905541419983,46.67658615112305,-0.05264269933104515,0.2991330027580261,0.019276142120361328,0.08527517318725586,0.19614863395690918,0.25168752670288086,0.024759765714406967,0.07792413234710693,-0.2172723412513733,-0.07673615217208862,-0.43396681547164917,0.0,0.0,0.3,0.0,0.0,0.0,0.4,0.0,0.0,0.0,0.0,-0.3499826237843633
2.500004768371582,0,1.2886171340942383,46.68149185180664,-0.05098489671945572,0.3002087473869324,0.014218330383300781,0.08343887329101562,0.18799591064453125,0.2533223330974579,0.02793302573263645,0.06772962957620621,-0.16711464524269104,-0.13961488008499146,-0.397000789642334,0.0,0.0,0.3,0.0,0.0,0.0,0.4,0.0,0.0,0.0,0.0,-0.2627025292927696
2.520005702972412,0,1.7641716003417969,46.68644332885742,-0.04944124072790146,0.30060890316963196,0.009594917297363281,0.07926583290100098,0.17954611778259277,0.27284082770347595,0.016091762110590935,-0.0023792311549186707,-0.21723470091819763,-0.34430745244026184,-0.506862223148346,0.0,0.0,0.3,0.0,0.0,0.0,0.4,0.0,0.0,0.0,0.0,-0.16965183976042203
2.540006637573242,0,3.269761562347412,46.69124221801758,-0.048501159995794296,0.3014395236968994,0.01109004020690918,0.08286643028259277,0.17185425758361816,0.21311290562152863,-0.01620110496878624,0.15791933238506317,0.19910234212875366,0.531182587146759,-0.2478938102722168,0.0,0.0,0.3,0.0,0.0,0.0,0.4,0.0,0.0,0.0,0.0,-0.07194593922539308
2.5600075721740723,0,3.2565906047821045,46.69605255126953,-0.048147521913051605,0.30410388112068176,0.0171964168548584,0.09177422523498535,0.16685795783996582,0.23533974587917328,-0.03199112415313721,0.13294032216072083,0.2906665802001953,0.3719969391822815,-0.2825476825237274,0.0,0.0,0.3,0.0,0.0,0.0,0.4,0.0,0.0,0.0,0.0,0.029132622709497676
2.5800085067749023,0,3.180304527282715,46.7012939453125,-0.04803592711687088,0.3059476912021637,0.022143840789794922,0.09749913215637207,0.16123390197753906,0.2552646994590759,-0.045122213661670685,0.10205809772014618,0.2240995317697525,0.24086229503154755,-0.29512646794319153,0.0,0.0,0.3,0.0,0.0,0.0,0.4,0.0,0.0,0.0,0.0,0.13216205799817424
2.6000094413757324,0,3.2233052253723145,46.70686340332031,-0.04813229292631149,0.3071947991847992,0.024944543838500977,0.10119199752807617,0.15580129623413086,0.2687811255455017,-0.05507466942071915,0.08182856440544128,0.13846297562122345,0.15968115627765656,-0.2696659564971924,0.0,0.0,0.3,0.0,0.0,0.0,0.4,0.0,0.0,0.0,0.0,0.235616223694315
2.6200103759765625,0,3.37125301361084,46.71260070800781,-0.048396483063697815,0.30809447169303894,0.025948286056518555,0.10369372367858887,0.15102410316467285,0.27828341722488403,-0.06219625100493431,0.07024018466472626,0.06515389680862427,0.10894207656383514,-0.231289342045784,0.0,0.0,0.3,0.0,0.0,0.0,0.4,0.0,0.0,0.0,0.0,0.3379059797193607
2.6400113105773926,0,3.620192766189575,46.7184944152832,-0.04878297075629234,0.3088061809539795,0.025817155838012695,0.10538887977600098,0.1468665599822998,0.2862279713153839,-0.06700922548770905,0.06385134905576706,0.017068319022655487,0.06789834052324295,-0.19760988652706146,0.0,0.0,0.3,0.0,0.0,0.0,0.4,0.0,0.0,0.0,0.0,0.4374261965453671
2.6600122451782227,0,3.973403215408325,46.72452163696289,-0.04924934357404709,0.3094470798969269,0.025429487228393555,0.10659623146057129,0.14315342903137207,0.29221460223197937,-0.06955768913030624,0.06205189228057861,-0.0004973374307155609,0.03874751925468445,-0.1707935333251953,0.0,0.0,0.3,0.0,0.0,0.0,0.4,0.0,0.0,0.0,0.0,0.532607072537177
2.6800131797790527,0,4.398460388183594,46.7306022644043,-0.04976041242480278,0.3101372718811035,0.025353193283081055,0.10777473449707031,0.13985419273376465,0.294773668050766,-0.06989341229200363,0.0651339739561081,0.003927526064217091,0.03308917209506035,-0.14414770901203156,0.0,0.0,0.3,0.0,0.0,0.0,0.4,0.0,0.0,0.0,0.0,0.6219677576521979
2.700014114379883,0,4.755771160125732,46.736717224121094,-0.05028657242655754,0.3108844757080078,0.02538275718688965,0.10900473594665527,0.13703465461730957,0.29668641090393066,-0.06885391473770142,0.0654163658618927,-0.006170140579342842,0.02678844705224037,-0.11602984368801117,0.0,0.0,0.3,0.0,0.0,0.0,0.4,0.0,0.0,0.0,0.0,0.7
2.720015048980713,0,4.5078444480896,46.74287033081055,-0.050802670419216156,0.3115493953227997,0.024802207946777344,0.10997366905212402,0.1347668170928955,0.30043110251426697,-0.06722130626440048,0.05826011300086975,-0.038560327142477036,0.00770666915923357,-0.08547575026750565,0.0,0.0,0.3,0.0,0.0,0.0,0.4,0.0,0.0,0.0,0.0,0.7
2.740015983581543,0,4.2029337882995605,46.749107360839844,-0.051286712288856506,0.31193655729293823,0.02306962013244629,0.11016082763671875,0.13312458992004395,0.30841967463493347,-0.06542064994573593,0.043011948466300964,-0.08868255466222763,-0.0356646291911602,-0.054650675505399704,0.0,0.0,0.3,0.0,0.0,0.0,0.4,0.0,0.0,0.0,0.0,0.7
2.760016918182373,0,3.8783326148986816,46.75553894042969,-0.05171940103173256,0.3118719756603241,0.020101308822631836,0.10899567604064941,0.13216304779052734,0.32196924090385437,-0.06370954215526581,0.02272772789001465,-0.13457542657852173,-0.0963309183716774,-0.02401726320385933,0.0,0.0,0.3,0.0,0.0,0.0,0.4,0.0,0.0,0.0,0.0,0.7
2.780017852783203,0,3.2725892066955566,46.762062072753906,-0.05202771723270416,0.3109762370586395,0.016623735427856445,0.1066138744354248,0.13332343101501465,0.32835182547569275,-0.05042773112654686,-0.09008538722991943,0.26301270723342896,-0.27471768856048584,0.18164564669132233,0.0,0.0,0.3,0.0,0.0,0.0,0.4,0.0,0.0,0.0,0.0,0.7
2.800018787384033,0,3.892639398574829,46.76811599731445,-0.051997341215610504,0.30915841460227966,0.01643681526184082,0.10810542106628418,0.13677358627319336,0.29021763801574707,-0.024052897468209267,-0.034149520099163055,-0.11443445831537247,0.3096490800380707,0.1336769461631775,0.0,0.0,0.3,0.0,0.0,0.0,0.4,0.0,0.0,0.0,0.0,0.7
2.8200197219848633,0,3.181565284729004,46.77381896972656,-0.051589611917734146,0.30793192982673645,0.01289224624633789,0.11272740364074707,0.14064240455627441,0.28639042377471924,-0.010500302538275719,-0.0272354893386364,-0.1606614887714386,0.1978452205657959,0.25056061148643494,0.0,0.0,0.3,0.0,0.0,0.0,0.4,0.0,0.0,0.0,0.0,0.7
2.8400206565856934,0,2.6846492290496826,46.7794303894043,-0.05095384642481804,0.30672627687454224,0.011456012725830078,0.11528801918029785,0.1467440128326416,0.2832217216491699,0.0013471643906086683,-0.023394551128149033,-0.10697494447231293,0.11684144288301468,0.35840365290641785,0.0,0.0,0.3,0.0,0.0,0.0,0.4,0.0,0.0,0.0,0.0,0.7
2.8600215911865234,0,2.394556760787964,46.78493118286133,-0.05013374984264374,0.3056287467479706,0.011637687683105469,0.11666178703308105,0.15494394302368164,0.2780151665210724,0.010033362545073032,-0.015619367361068726,-0.07976782321929932,0.06855710595846176,0.45564672350883484,0.0,0.0,0.3,0.0,0.0,0.0,0.4,0.0,0.0,0.0,0.0,0.7
2.8800225257873535,0,2.229426622390747,46.79029846191406,-0.049184881150722504,0.30477043986320496,0.011848926544189453,0.1173853874206543,0.164992094039917,0.27222564816474915,0.015506151132285595,-0.0027859658002853394,-0.10771563649177551,0.03999968618154526,0.5373845100402832,0.0,0.0,0.3,0.0,0.0,0.0,0.4,0.0,0.0,0.0,0.0,0.7
2.9000234603881836,0,2.112637758255005,46.79559326171875,-0.048151805996894836,0.3042406737804413,0.010395288467407227,0.11744952201843262,0.17666888236999512,0.2678934633731842,0.01832350715994835,0.012750126421451569,-0.1807786524295807,-0.0012816805392503738,0.6092798113822937,0.0,0.0,0.3,0.0,0.0,0.0,0.4,0.0,0.0,0.0,0.0,0.7
2.9200243949890137,0,2.1349081993103027,46.80078887939453,-0.047057926654815674,0.3041459619998932,0.006852388381958008,0.11722135543823242,0.18968629837036133,0.2613832950592041,0.01954462379217148,0.03394542634487152,-0.25839951634407043,-0.019209399819374084,0.6631145477294922,0.0,0.0,0.3,0.0,0.0,0.0,0.4,0.0,0.0,0.0,0.0,0.7
2.9400253295898438,0,2.1900877952575684,46.80586242675781,-0.045921437442302704,0.30454131960868835,0.0019562244415283203,0.11699748039245605,0.20364665985107422,0.2535496652126312,0.01935317926108837,0.055039599537849426,-0.2947424650192261,-0.030945315957069397,0.7001612186431885,0.0,0.0,0.3,0.0,0.0,0.0,0.4,0.0,0.0,0.0,0.0,0.7
2.960026264190674,0,2.1645843982696533,46.8108024597168,-0.044756289571523666,0.305265873670578,-0.0030062198638916016,0.11656618118286133,0.21827340126037598,0.2487219125032425,0.018112437799572945,0.06441962718963623,-0.27924031019210815,-0.054149188101291656,0.7276020050048828,0.0,0.0,0.3,0.0,0.0,0.0,0.4,0.0,0.0,0.0,0.0,0.7
2.980027198791504,0,2.0562632083892822,46.815673828125,-0.04357290267944336,0.30602937936782837,-0.006798982620239258,0.11554408073425293,0.23343896865844727,0.24775807559490204,0.015940356999635696,0.06134459003806114,-0.22265282273292542,-0.08925457298755646,0.7541603446006775,0.0,0.0,0.3,0.0,0.0,0.0,0.4,0.0,0.0,0.0,0.0,0.7
3.000028133392334,0,1.9134241342544556,46.82056427001953,-0.04237116128206253,0.3065658509731293,-0.008886575698852539,0.1135101318359375,0.24915552139282227,0.252534419298172,0.013218559324741364,0.04791712760925293,-0.15114930272102356,-0.14103402197360992,0.7858456969261169,0.0,0.0,0.3,0.0,0.0,0.0,0.4,0.0,0.0,0.0,0.0,0.7
3.020029067993164,0,1.9387421607971191,46.82551956176758,-0.04126992076635361,0.3064442574977875,-0.011335611343383789,0.1097865104675293,0.2633833885192871,0.2720892131328583,-0.00422061188146472,-0.026944665238261223,-0.2543460726737976,-0.31338241696357727,0.5820460915565491,0.0,0.0,0.3,0.0,0.0,0.0,0.4,0.0,0.0,0.0,0.0,0.7
3.040030002593994,0,3.2160534858703613,46.830223083496094,-0.04065521061420441,0.30656442046165466,-0.012198686599731445,0.11116337776184082,0.27484774589538574,0.20215103030204773,-0.03468288481235504,0.1319088190793991,0.05861171334981918,0.35014602541923523,0.5890512466430664,0.0,0.0,0.3,0.0,0.0,0.0,0.4,0.0,0.0,0.0,0.0,0.7
3.060030937194824,0,2.8395261764526367,46.83491134643555,-0.0404304563999176,0.30855026841163635,-0.00842595100402832,0.11626362800598145,0.28587937355041504,0.22491338849067688,-0.051103755831718445,0.10813818871974945,0.09207628667354584,0.18099477887153625,0.5087304711341858,0.0,0.0,0.3,0.0,0.0,0.0,0.4,0.0,0.0,0.0,0.0,0.7
3.0800318717956543,0,2.6426961421966553,46.840084075927734,-0.04034041613340378,0.3097194731235504,-0.005341768264770508,0.11824989318847656,0.2954838275909424,0.24679048359394073,-0.06661058962345123,0.07500699162483215,0.08615604788064957,0.0665232464671135,0.4534313380718231,0.0,0.0,0.3,0.0,0.0,0.0,0.4,0.0,0.0,0.0,0.0,0.7
3.1000328063964844,0,2.5177409648895264,46.845558166503906,-0.04038837179541588,0.3102298378944397,-0.0031387805938720703,0.11848735809326172,0.3042716979980469,0.26055413484573364,-0.07962058484554291,0.05003490298986435,0.05575106665492058,-0.0004959094221703708,0.427101194858551,0.0,0.0,0.3,0.0,0.0,0.0,0.4,0.0,0.0,0.0,0.0,0.7
3.1200337409973145,0,2.3944568634033203,46.85128402709961,-0.040562860667705536,0.3103328347206116,-0.0018312931060791016,0.11778712272644043,0.3128089904785156,0.2690139412879944,-0.09035435318946838,0.03554771468043327,0.025498591363430023,-0.04116182029247284,0.4268513321876526,0.0,0.0,0.3,0.0,0.0,0.0,0.4,0.0,0.0,0.0,0.0,0.7
3.1400346755981445,0,2.251704216003418,46.857154846191406,-0.04084298014640808,0.3102867901325226,-0.0006344318389892578,0.11643409729003906,0.32166290283203125,0.27465811371803284,-0.0991220772266388,0.03227518871426582,0.030875664204359055,-0.07617444545030594,0.4522392153739929,0.0,0.0,0.3,0.0,0.0,0.0,0.4,0.0,0.0,0.0,0.0,0.7
3.1600356101989746,0,2.1468472480773926,46.86318588256836,-0.04121251404285431,0.31035882234573364,0.0016257762908935547,0.11463642120361328,0.331134557723999,0.2773054540157318,-0.10674022883176804,0.04114750027656555,0.07149651646614075,-0.10377926379442215,0.48621147871017456,0.0,0.0,0.3,0.0,0.0,0.0,0.4,0.0,0.0,0.0,0.0,0.7
3.1800365447998047,0,2.155447244644165,46.86924362182617,-0.04166506603360176,0.31067538261413574,0.005413532257080078,0.11275815963745117,0.3408339023590088,0.2757120132446289,-0.11337225884199142,0.05083984509110451,0.11845340579748154,-0.11331736296415329,0.4931478500366211,0.0,0.0,0.3,0.0,0.0,0.0,0.4,0.0,0.0,0.0,0.0,0.7
3.2000374794006348,0,2.1651623249053955,46.875301361083984,-0.04219912737607956,0.31116047501564026,0.010064363479614258,0.11081886291503906,0.3503859043121338,0.27295392751693726,-0.11963198333978653,0.05495278909802437,0.1349780261516571,-0.12331309914588928,0.4874323010444641,0.0,0.0,0.3,0.0,0.0,0.0,0.4,0.0,0.0,0.0,0.0,0.7
3.220038414001465,0,2.1056923866271973,46.88135528564453,-0.042811986058950424,0.3116413950920105,0.014525413513183594,0.10849404335021973,0.35978198051452637,0.2720656991004944,-0.12607790529727936,0.050566449761390686,0.1191367506980896,-0.1468265950679779,0.483541876077652,0.0,0.0,0.3,0.0,0.0,0.0,0.4,0.0,0.0,0.0,0.0,0.7
3.240039348602295,0,1.9778355360031128,46.887454986572266,-0.043492384254932404,0.3119050860404968,0.018058061599731445,0.10530471801757812,0.36918067932128906,0.27458199858665466,-0.1328423172235489,0.03712432086467743,0.08154672384262085,-0.18925216794013977,0.48566704988479614,0.0,0.0,0.3,0.0,0.0,0.0,0.4,0.0,0.0,0.0,0.0,0.7
3.260040283203125,0,1.8050670623779297,46.89369201660156,-0.044220998883247375,0.3117693066596985,0.020206928253173828,0.10082769393920898,0.3788020610809326,0.28108853101730347,-0.1403249204158783,0.01822574809193611,0.028993133455514908,-0.2427287995815277,0.4962494969367981,0.0,0.0,0.3,0.0,0.0,0.0,0.4,0.0,0.0,0.0,0.0,0.7
3.280041217803955,0,2.0426292419433594,46.89995574951172,-0.044888392090797424,0.31087931990623474,0.0201416015625,0.09509134292602539,0.3895227909088135,0.28915032744407654,-0.13409456610679626,-0.0744071751832962,-0.5163826942443848,-0.15171732008457184,0.6860601305961609,0.0,0.0,0.3,0.0,0.0,0.0,0.4,0.0,0.0,0.0,0.0,0.7
3.300042152404785,0,1.409179925918579,46.90592956542969,-0.04534408822655678,0.30883505940437317,0.018172264099121094,0.09090089797973633,0.40372490882873535,0.2646256387233734,-0.11954771727323532,-0.05704365670681,-0.00775359570980072,-0.22431087493896484,0.7465280294418335,0.0,0.0,0.3,0.0,0.0,0.0,0.4,0.0,0.0,0.0,0.0,0.7
3.3200430870056152,0,1.2792320251464844,46.91161346435547,-0.04552716016769409,0.30707311630249023,0.020745038986206055,0.08578991889953613,0.41846203804016113,0.26259708404541016,-0.09964372217655182,-0.04907979816198349,-0.021362852305173874,-0.20239071547985077,0.7461598515510559,0.0,0.0,0.3,0.0,0.0,0.0,0.4,0.0,0.0,0.0,0.0,0.7
3.3400440216064453,0,1.171053409576416,46.91716766357422,-0.045258779078722,0.3054487407207489,0.023006916046142578,0.08101534843444824,0.43318915367126465,0.26512569189071655,-0.08208562433719635,-0.04448232054710388,-0.01637417823076248,-0.1835651993751526,0.7521804571151733,0.0,0.0,0.3,0.0,0.0,0.0,0.4,0.0,0.0,0.0,0.0,0.7
3.3600449562072754,0,1.0641523599624634,46.92265319824219,-0.0446113720536232,0.30400368571281433,0.024929046630859375,0.07695889472961426,0.4480781555175781,0.26592206954956055,-0.06891604512929916,-0.03683803975582123,-0.06253418326377869,-0.14085933566093445,0.7617369890213013,0.0,0.0,0.3,0.0,0.0,0.0,0.4,0.0,0.0,0.0,0.0,0.7
3.3800458908081055,0,1.018805742263794,46.92807388305664,-0.04369513690471649,0.3028479516506195,0.024842262268066406,0.07389378547668457,0.46332359313964844,0.264948308467865,-0.060536112636327744,-0.02399376593530178,-0.16036760807037354,-0.10028231889009476,0.7789452075958252,0.0,0.0,0.3,0.0,0.0,0.0,0.4,0.0,0.0,0.0,0.0,0.7
3.4000468254089355,0,1.1185553073883057,46.93340301513672,-0.04260370135307312,0.30206796526908875,0.02100229263305664,0.07158422470092773,0.4792649745941162,0.26363497972488403,-0.05550141632556915,-0.007945699617266655,-0.2912466526031494,-0.07488662004470825,0.8107085227966309,0.0,0.0,0.3,0.0,0.0,0.0,0.4,0.0,0.0,0.0,0.0,0.7
3.4200477600097656,0,1.254744052886963,46.93866729736328,-0.041382644325494766,0.3017652928829193,0.014513254165649414,0.07022595405578613,0.49587488174438477,0.2608295679092407,-0.05229320004582405,0.01361909881234169,-0.3622768819332123,-0.044245533645153046,0.8322898149490356,0.0,0.0,0.3,0.0,0.0,0.0,0.4,0.0,0.0,0.0,0.0,0.7
3.4400486946105957,0,1.2864632606506348,46.943843841552734,-0.04005468636751175,0.3019792437553406,0.007457256317138672,0.06998205184936523,0.5127923488616943,0.25767782330513,-0.050482362508773804,0.03463085740804672,-0.35343730449676514,-0.002742124255746603,0.8385388851165771,0.0,0.0,0.3,0.0,0.0,0.0,0.4,0.0,0.0,0.0,0.0,0.7
3.460049629211426,0,1.216794729232788,46.94899368286133,-0.038644466549158096,0.30256327986717224,0.001310110092163086,0.0704951286315918,0.5297987461090088,0.2568186819553375,-0.05136600136756897,0.04631536453962326,-0.29361870884895325,0.012471532449126244,0.8396272659301758,0.0,0.0,0.3,0.0,0.0,0.0,0.4,0.0,0.0,0.0,0.0,0.7
3.480050563812256,0,1.211690068244934,46.95417022705078,-0.03717367351055145,0.3032360374927521,-0.0028307437896728516,0.07111716270446777,0.5468835830688477,0.2598085403442383,-0.05474625900387764,0.04513110965490341,-0.19733504951000214,0.006038178224116564,0.845880925655365,0.0,0.0,0.3,0.0,0.0,0.0,0.4,0.0,0.0,0.0,0.0,0.6311251555193348
3.500051498413086,0,1.3826125860214233,46.95947265625,-0.03564625605940819,0.30372363328933716,-0.004602670669555664,0.07128453254699707,0.5641534328460693,0.2678689658641815,-0.060549408197402954,0.03389419615268707,-0.0924251526594162,-0.019807448610663414,0.8576256632804871,0.0,0.0,0.3,0.0,0.0,0.0,0.4,0.0,0.0,0.0,0.0,0.5225200133580471
